{
  "디큐브 링크아트센터": {
    "name": "디큐브 링크아트센터",
    "address": "서울 구로구 신도림동 692",
    "district": "구로구",
    "lat": 37.5091267288182,
    "lng": 126.889588489589
  },
  "노원구민의전당 (구.노원구민회관)": {
    "name": "노원구민의전당 (구.노원구민회관)",
    "address": "노원구민의전당, 동일로, 하계동, 중계2·3동, 노원구, 서울특별시, 01783, 대한민국",
    "district": "노원구",
    "lat": 37.639421,
    "lng": 127.0666257
  },
  "서대문문화체육회관 대극장": {
    "name": "서대문문화체육회관 대극장",
    "address": "서대문문화체육회관 대극장, 39, 백련사길, 홍은2동, 서대문구, 서울특별시, 03654, 대한민국",
    "district": "서대문구",
    "lat": 37.5806951,
    "lng": 126.9314183
  },
  "강동구민회관 대강당": {
    "name": "강동구민회관 대강당",
    "address": "서울 강동구 천호동 41",
    "district": "강동구",
    "lat": 37.5457179498377,
    "lng": 127.141104271601
  },
  "성수아트홀": {
    "name": "성수아트홀",
    "address": "성수아트홀, 왕십리로6길, 성수1가2동, 성동구, 서울특별시, 04778, 대한민국",
    "district": "성동구",
    "lat": 37.5454098,
    "lng": 127.0469706
  },
  "유니버설아트센터": {
    "name": "유니버설아트센터",
    "address": "유니버설아트센터, 천호대로130길, 구의동, 구의2동, 광진구, 서울특별시, 04992, 대한민국",
    "district": "광진구",
    "lat": 37.550876,
    "lng": 127.0880123
  },
  "꿈의숲_퍼포먼스홀": {
    "name": "꿈의숲_퍼포먼스홀",
    "address": "서울 강북구 번동 90",
    "district": "강북구",
    "lat": 37.6216704342967,
    "lng": 127.038472269356
  },
  "대학로 스타시티 7층 후암씨어터": {
    "name": "대학로 스타시티 7층 후암씨어터",
    "address": "서울 종로구 대학로11길 23 대학로스타시티빌딩",
    "district": "종로구",
    "lat": 37.573,
    "lng": 126.9794
  },
  "도봉구민회관 하모니홀": {
    "name": "도봉구민회관 하모니홀",
    "address": "서울 도봉구 창동 303",
    "district": "도봉구",
    "lat": 37.6541887798308,
    "lng": 127.038484507498
  },
  "노원문화예술회관 대공연장": {
    "name": "노원문화예술회관 대공연장",
    "address": "서울 노원구 중계동 364-3",
    "district": "노원구",
    "lat": 37.6501998113605,
    "lng": 127.080282814225
  },
  "GS아트센터": {
    "name": "GS아트센터",
    "address": "서울 강남구 역삼동 679",
    "district": "강남구",
    "lat": 37.502200388584036,
    "lng": 127.03753554610904
  },
  "예술의전당 오페라극장": {
    "name": "예술의전당 오페라극장",
    "address": "서울 서초구 서초동 산 134-1",
    "district": "서초구",
    "lat": 37.4793614002782,
    "lng": 127.013806705374
  },
  "매키탄 호텔 (The McKithan Hotel)": {
    "name": "매키탄 호텔 (The McKithan Hotel)",
    "address": "서울 중구 필동2가 19-1",
    "district": "중구",
    "lat": 37.5610830906596,
    "lng": 126.995355015521
  },
  "경복궁아트홀": {
    "name": "경복궁아트홀",
    "address": "서울 종로구 효자동 70-1",
    "district": "종로구",
    "lat": 37.5833521439842,
    "lng": 126.970699806044
  },
  "한국방송회관 2층 코바코홀": {
    "name": "한국방송회관 2층 코바코홀",
    "address": "서울 양천구 목동동로 233 한국방송회관 2층 코바코홀",
    "district": "양천구",
    "lat": 37.5169,
    "lng": 126.866
  },
  "오류아트홀": {
    "name": "오류아트홀",
    "address": "서울 구로구 오류동 64-28",
    "district": "구로구",
    "lat": 37.4953574870152,
    "lng": 126.846035798837
  },
  "강서구민회관 우장홀": {
    "name": "강서구민회관 우장홀",
    "address": "서울 강서구 내발산동 산 4-5",
    "district": "강서구",
    "lat": 37.5534365135927,
    "lng": 126.843648465686
  },
  "장충체육관": {
    "name": "장충체육관",
    "address": "장충체육관, 241, 동호로, 장충동2가, 장충동, 중구, 서울특별시, 04605, 대한민국",
    "district": "중구",
    "lat": 37.5581698,
    "lng": 127.0067954
  },
  "잠실학생체육관": {
    "name": "잠실학생체육관",
    "address": "서울 송파구 올림픽로 25",
    "district": "송파구",
    "lat": 37.5121,
    "lng": 127.0762
  },
  "인천 계양체육관": {
    "name": "인천 계양체육관",
    "address": "인천 계양구 봉오대로 855",
    "district": "계양구",
    "lat": 37.5524,
    "lng": 126.7335
  },
  "인천 삼산월드체육관": {
    "name": "인천 삼산월드체육관",
    "address": "인천 부평구 체육관로 60",
    "district": "부평구",
    "lat": 37.5085,
    "lng": 126.7436
  },
  "수원 실내체육관": {
    "name": "수원 실내체육관",
    "address": "경기 수원시 장안구 경수대로 893",
    "district": "장안구",
    "lat": 37.2982,
    "lng": 127.0096
  },
  "수원실내체육관": {
    "name": "수원 실내체육관",
    "address": "경기 수원시 장안구 경수대로 893",
    "district": "장안구",
    "lat": 37.2982,
    "lng": 127.0096
  },
  "의정부 경민대학교 기념관(체육관)": {
    "name": "의정부 경민대학교 기념관",
    "address": "경기 의정부시 서부로 545",
    "district": "의정부시",
    "lat": 37.7372,
    "lng": 127.0335
  },
  "화성종합경기타운 실내체육관": {
    "name": "화성종합경기타운 실내체육관",
    "address": "경기 화성시 향남읍 향남로 470",
    "district": "화성시",
    "lat": 37.1334,
    "lng": 126.9213
  },
  "수원 KT 소닉붐 아레나": {
    "name": "수원 KT 소닉붐 아레나",
    "address": "경기 수원시 권선구 서수원로577번길 171",
    "district": "권선구",
    "lat": 37.2662,
    "lng": 126.9495
  },
  "고양소노아레나": {
    "name": "고양소노아레나",
    "address": "경기 고양시 일산서구 중앙로 1601",
    "district": "일산서구",
    "lat": 37.6749,
    "lng": 126.7472
  },
  "영등포아트홀": {
    "name": "영등포아트홀",
    "address": "영등포아트홀 앞, 신월여의지하도로, 당산1동, 영등포구, 서울특별시, 07988, 대한민국",
    "district": "영등포구",
    "lat": 37.5266838,
    "lng": 126.9001923
  },
  "성균관대학교 새천년홀": {
    "name": "성균관대학교 새천년홀",
    "address": "서울 종로구 명륜3가 53-21",
    "district": "종로구",
    "lat": 37.5874353512492,
    "lng": 126.994551768303
  },
  "용산아트홀 대극장 미르": {
    "name": "용산아트홀 대극장 미르",
    "address": "서울 용산구 이태원동 34-87",
    "district": "용산구",
    "lat": 37.5328454776885,
    "lng": 126.990310759146
  },
  "티켓링크 1975 씨어터 (구 어린이회관 문화관)": {
    "name": "티켓링크 1975 씨어터 (구 어린이회관 문화관)",
    "address": "서울 광진구 능동 18-11",
    "district": "광진구",
    "lat": 37.546974854863365,
    "lng": 127.07657573739962
  },
  "양천문화회관 대극장": {
    "name": "양천문화회관 대극장",
    "address": "서울 양천구 신정동 322",
    "district": "양천구",
    "lat": 37.5164838127114,
    "lng": 126.863262711975
  },
  "달밤엔씨어터": {
    "name": "달밤엔씨어터",
    "address": "서울 종로구 혜화동 194",
    "district": "종로구",
    "lat": 37.58400086117188,
    "lng": 127.00268096839773
  },
  "KT＆G 상상마당 대치아트홀": {
    "name": "KT＆G 상상마당 대치아트홀",
    "address": "서울 강남구 대치동 1002",
    "district": "강남구",
    "lat": 37.5067600874053,
    "lng": 127.065150015652
  },
  "나루아트센터 대공연장": {
    "name": "나루아트센터 대공연장",
    "address": "서울 광진구 자양동 227-344",
    "district": "광진구",
    "lat": 37.5375856708648,
    "lng": 127.070580693965
  },
  "국립중앙박물관 극장 용": {
    "name": "국립중앙박물관 극장 용",
    "address": "서울 용산구 용산동6가 168-6",
    "district": "용산구",
    "lat": 37.5243097105777,
    "lng": 126.978949457103
  },
  "광림아트센터 BBCH홀": {
    "name": "광림아트센터 BBCH홀",
    "address": "서울 강남구 신사동 568-15",
    "district": "강남구",
    "lat": 37.5240421373158,
    "lng": 127.025498578086
  },
  "구로구민회관 대강당": {
    "name": "구로구민회관 대강당",
    "address": "서울 구로구 구로동 102",
    "district": "구로구",
    "lat": 37.4971290233331,
    "lng": 126.889674007092
  },
  "광진청소년센터 대극장": {
    "name": "광진청소년센터 대극장",
    "address": "서울 광진구 구천면로 2",
    "district": "광진구",
    "lat": 37.5385,
    "lng": 127.0824
  },
  "서연아트홀": {
    "name": "서연아트홀",
    "address": "서울 종로구 명륜2가 21-10",
    "district": "종로구",
    "lat": 37.5839107908654,
    "lng": 127.000579668144
  },
  "강서아트리움 아리홀": {
    "name": "강서아트리움 아리홀",
    "address": "서울 강서구 가로공원로 195 강서아트리움",
    "district": "강서구",
    "lat": 37.5509,
    "lng": 126.8497
  },
  "성북구민회관 대강당": {
    "name": "성북구민회관 대강당",
    "address": "서울 성북구 안암동5가 1-2",
    "district": "성북구",
    "lat": 37.5879573040421,
    "lng": 127.032055571671
  },
  "서울 상상나라극장": {
    "name": "서울 상상나라극장",
    "address": "서울 광진구 능동 18",
    "district": "광진구",
    "lat": 37.5507683230768,
    "lng": 127.077550584743
  },
  "국립극장 달오름극장": {
    "name": "국립극장 달오름극장",
    "address": "서울 중구 장충동2가 산 14-67",
    "district": "중구",
    "lat": 37.5531399890378,
    "lng": 127.000027160769
  },
  "국립극장 해오름극장": {
    "name": "국립극장 해오름극장",
    "address": "서울 중구 장충동2가 산 14-67",
    "district": "중구",
    "lat": 37.5523399024517,
    "lng": 126.999728395216
  },
  "구로예술나무씨어터": {
    "name": "구로예술나무씨어터",
    "address": "서울 구로구 구로동 501",
    "district": "구로구",
    "lat": 37.5000826217182,
    "lng": 126.884132790487
  },
  "명륜아트홀": {
    "name": "명륜아트홀",
    "address": "서울 종로구 명륜1가 72-3",
    "district": "종로구",
    "lat": 37.5868047368621,
    "lng": 126.996734711625
  },
  "명동난타극장": {
    "name": "명동난타극장",
    "address": "명동난타극장, 명동길, 명동1가, 명동, 중구, 서울특별시, 04537, 대한민국",
    "district": "중구",
    "lat": 37.5635792,
    "lng": 126.9836608
  },
  "홍대난타극장": {
    "name": "홍대난타극장",
    "address": "서울 마포구 서교동 357-5",
    "district": "마포구",
    "lat": 37.5531929565343,
    "lng": 126.921161292611
  },
  "NOL 유니플렉스 3관": {
    "name": "NOL 유니플렉스 3관",
    "address": "서울 종로구 동숭동 1-99",
    "district": "종로구",
    "lat": 37.5812041552463,
    "lng": 127.003523167887
  },
  "한성아트홀": {
    "name": "한성아트홀",
    "address": "서울 종로구 명륜2가 41-4",
    "district": "종로구",
    "lat": 37.5837630293767,
    "lng": 126.999950184867
  },
  "후암스테이지 1관": {
    "name": "후암스테이지 1관",
    "address": "서울 종로구 대학로11길 23 대학로스타시스빌딩 지하2층",
    "district": "종로구",
    "lat": 37.573,
    "lng": 126.9794
  },
  "엠스테이지 2관": {
    "name": "엠스테이지 2관",
    "address": "서울 종로구 인사동길 34-1 지하2층 엠스테이지",
    "district": "종로구",
    "lat": 37.573,
    "lng": 126.9794
  },
  "큐씨어터": {
    "name": "큐씨어터",
    "address": "서울 종로구 동숭동 1-74",
    "district": "종로구",
    "lat": 37.5824943778166,
    "lng": 127.003532285831
  },
  "강동아트센터 소극장 드림": {
    "name": "강동아트센터 소극장 드림",
    "address": "서울 강동구 상일동 477",
    "district": "강동구",
    "lat": 37.5513198058209,
    "lng": 127.157229815143
  },
  "JS아트홀(구,고스트씨어터)": {
    "name": "JS아트홀(구,고스트씨어터)",
    "address": "서울 종로구 동숭동 25-11",
    "district": "종로구",
    "lat": 37.5824312810645,
    "lng": 127.004347425046
  },
  "브릭스씨어터": {
    "name": "브릭스씨어터",
    "address": "서울 종로구 동숭동 1-93",
    "district": "종로구",
    "lat": 37.5809536735174,
    "lng": 127.003702030975
  },
  "대학로 하마씨어터": {
    "name": "대학로 하마씨어터",
    "address": "서울 종로구 동숭동 1-63",
    "district": "종로구",
    "lat": 37.5822601398146,
    "lng": 127.002771477123
  },
  "예스24스테이지 1관": {
    "name": "예스24스테이지 1관",
    "address": "서울 종로구 동숭동 1-52",
    "district": "종로구",
    "lat": 37.5827268419485,
    "lng": 127.00326058167471
  },
  "코엑스아티움": {
    "name": "코엑스아티움",
    "address": "서울 강남구 삼성동 159-9",
    "district": "강남구",
    "lat": 37.50994346786382,
    "lng": 127.06154587656543
  },
  "대학로 TOM(티오엠) 1관": {
    "name": "대학로 TOM(티오엠) 1관",
    "address": "서울 종로구 동숭동 1-80",
    "district": "종로구",
    "lat": 37.5822745319552,
    "lng": 127.0036454894
  },
  "백암아트홀": {
    "name": "백암아트홀",
    "address": "백암아트홀, 테헤란로113길, 삼성1동, 강남구, 서울특별시, 06171, 대한민국",
    "district": "강남구",
    "lat": 37.5103915,
    "lng": 127.0659756
  },
  "강동아트센터 대극장 한강": {
    "name": "강동아트센터 대극장 한강",
    "address": "서울 강동구 상일동 477",
    "district": "강동구",
    "lat": 37.5513053959305,
    "lng": 127.157225258193
  },
  "블루스퀘어 신한카드홀": {
    "name": "블루스퀘어 신한카드홀",
    "address": "서울 용산구 한남동 727-56",
    "district": "용산구",
    "lat": 37.54070618075781,
    "lng": 127.00231959701894
  },
  "홍익대 대학로 아트센터 대극장": {
    "name": "홍익대 대학로 아트센터 대극장",
    "address": "서울 종로구 연건동 128-8",
    "district": "종로구",
    "lat": 37.576681207884405,
    "lng": 127.00152148175482
  },
  "LG아트센터 서울 LG SIGNATURE 홀": {
    "name": "LG아트센터 서울 LG SIGNATURE 홀",
    "address": "서울 강서구 마곡중앙로 136 LG아트센터 서울",
    "district": "강서구",
    "lat": 37.5509,
    "lng": 126.8497
  },
  "충무아트센터 중극장 블랙": {
    "name": "충무아트센터 중극장 블랙",
    "address": "서울 중구 흥인동 131",
    "district": "중구",
    "lat": 37.5660161094843,
    "lng": 127.014809694016
  },
  "NOL 유니플렉스 2관": {
    "name": "NOL 유니플렉스 2관",
    "address": "서울 종로구 동숭동 1-99",
    "district": "종로구",
    "lat": 37.581186135237,
    "lng": 127.00352769553
  },
  "예스24스테이지 2관": {
    "name": "예스24스테이지 2관",
    "address": "서울 종로구 동숭동 1-52",
    "district": "종로구",
    "lat": 37.5827268419485,
    "lng": 127.00326058167471
  },
  "JTN 아트홀 1관": {
    "name": "JTN 아트홀 1관",
    "address": "서울 종로구 이화동 139",
    "district": "종로구",
    "lat": 37.5766306962676,
    "lng": 127.00393954831
  },
  "NOL 유니플렉스 1관": {
    "name": "NOL 유니플렉스 1관",
    "address": "서울 종로구 동숭동 1-99",
    "district": "종로구",
    "lat": 37.5812041552463,
    "lng": 127.003523167887
  },
  "서울숲 씨어터 1관": {
    "name": "서울숲 씨어터 1관",
    "address": "서울 성동구 성수동1가 685-696",
    "district": "성동구",
    "lat": 37.5456773288432,
    "lng": 127.042914261633
  },
  "대학로 자유극장": {
    "name": "대학로 자유극장",
    "address": "서울 종로구 동숭동 1-45",
    "district": "종로구",
    "lat": 37.5827430495515,
    "lng": 127.003613812139
  },
  "루미나아트홀": {
    "name": "루미나아트홀",
    "address": "서울 종로구 동숭동 1-48",
    "district": "종로구",
    "lat": 37.5829809374055,
    "lng": 127.002649231615
  },
  "극장 온(구 CJ아지트)": {
    "name": "극장 온(구 CJ아지트)",
    "address": "Esplanade Theatres on the Bay, 8, Raffles Avenue, Marina Centre, Downtown Core, Central Region, Singapore, 039802, Singapore",
    "district": "",
    "lat": 1.2896438,
    "lng": 103.8559542
  },
  "서울숲 씨어터 2관": {
    "name": "서울숲 씨어터 2관",
    "address": "서울 성동구 서울숲2길 32-14",
    "district": "성동구",
    "lat": 37.5633,
    "lng": 127.0371
  },
  "극장 온": {
    "name": "극장 온",
    "address": "Esplanade Theatres on the Bay, 8, Raffles Avenue, Marina Centre, Downtown Core, Central Region, Singapore, 039802, Singapore",
    "district": "",
    "lat": 1.2896438,
    "lng": 103.8559542
  },
  "NOL 서경스퀘어 스콘 1관": {
    "name": "NOL 서경스퀘어 스콘 1관",
    "address": "서울 종로구 동숭길 148",
    "district": "종로구",
    "lat": 37.573,
    "lng": 126.9794
  },
  "et theatre 1 (이티 씨어터 원)": {
    "name": "et theatre 1 (이티 씨어터 원)",
    "address": "1, Galeries du Théâtre, Les Lices, Centre-Ville, Centre, Quartiers Centre, Rennes, Ille-et-Vilaine, Bretagne, France métropolitaine, 35000, France",
    "district": "",
    "lat": 48.1110823,
    "lng": -1.6786006
  },
  "샤롯데씨어터": {
    "name": "샤롯데씨어터",
    "address": "서울 송파구 잠실동 40-1",
    "district": "송파구",
    "lat": 37.51064272274346,
    "lng": 127.09971395114385
  },
  "링크아트센터 페이코홀": {
    "name": "링크아트센터 페이코홀",
    "address": "서울 종로구 혜화동 163-24",
    "district": "종로구",
    "lat": 37.5846892281094,
    "lng": 127.002296053199
  },
  "대학로 스타시티": {
    "name": "대학로 스타시티",
    "address": "서울 종로구 명륜4가 113-1",
    "district": "종로구",
    "lat": 37.582119616246,
    "lng": 127.000511726023
  },
  "링크아트센터 벅스홀": {
    "name": "링크아트센터 벅스홀",
    "address": "서울 종로구 대학로14길 29 링크아트센터",
    "district": "종로구",
    "lat": 37.573,
    "lng": 126.9794
  },
  "동덕여자대학교 공연예술센터 코튼홀": {
    "name": "동덕여자대학교 공연예술센터 코튼홀",
    "address": "서울 종로구 동숭길 126 동덕여대 공연예술 연구소",
    "district": "종로구",
    "lat": 37.573,
    "lng": 126.9794
  },
  "예술의전당 CJ 토월극장": {
    "name": "예술의전당 CJ 토월극장",
    "address": "서울 서초구 서초동 700",
    "district": "서초구",
    "lat": 37.479031607194734,
    "lng": 127.01400788796187
  },
  "올림픽공원 뮤즈라이브홀": {
    "name": "올림픽공원 뮤즈라이브홀",
    "address": "서울 송파구 방이동 88",
    "district": "송파구",
    "lat": 37.514382560555404,
    "lng": 127.12715971878471
  },
  "링크아트센터드림 드림3관": {
    "name": "링크아트센터드림 드림3관",
    "address": "서울 종로구 동숭동 1-42",
    "district": "종로구",
    "lat": 37.5832872589862,
    "lng": 127.003292306454
  },
  "충무아트센터 대극장": {
    "name": "충무아트센터 대극장",
    "address": "서울 중구 흥인동 131",
    "district": "중구",
    "lat": 37.5660269214363,
    "lng": 127.014809696157
  },
  "링크아트센터드림 드림2관": {
    "name": "링크아트센터드림 드림2관",
    "address": "서울 종로구 동숭길 123 링크아트센터드림",
    "district": "종로구",
    "lat": 37.573,
    "lng": 126.9794
  },
  "대학로 스튜디오 블루": {
    "name": "대학로 스튜디오 블루",
    "address": "서울 종로구 동숭동 1-73",
    "district": "종로구",
    "lat": 37.5824583458942,
    "lng": 127.003260569965
  },
  "한전아트센터": {
    "name": "한전아트센터",
    "address": "한전아트센터 앞, 효령로72길, 서초2동, 서초구, 서울특별시, 06732, 대한민국",
    "district": "서초구",
    "lat": 37.4864693,
    "lng": 127.0280609
  },
  "북촌나래홀": {
    "name": "북촌나래홀",
    "address": "서울 종로구 원서동 174",
    "district": "종로구",
    "lat": 37.5788394333206,
    "lng": 126.988434593589
  },
  "무하아트센터": {
    "name": "무하아트센터",
    "address": "서울 종로구 동숭동 199-33",
    "district": "종로구",
    "lat": 37.5784939268852,
    "lng": 127.004641537514
  },
  "Converse Stage Arena “여명”": {
    "name": "Converse Stage Arena “여명”",
    "address": "서울특별시 동작구 현충로 213(동작동)",
    "district": "동작구",
    "lat": 37.5124,
    "lng": 126.9393
  },
  "CTS아트홀": {
    "name": "CTS아트홀",
    "address": "CTS아트홀, 100, 노량진로, 노량진2동, 동작구, 서울특별시, 06928, 대한민국",
    "district": "동작구",
    "lat": 37.5130312,
    "lng": 126.9369921
  },
  "세종문화회관 M씨어터": {
    "name": "세종문화회관 M씨어터",
    "address": "서울 종로구 세종로 160-1",
    "district": "종로구",
    "lat": 37.5718133419444,
    "lng": 126.975685044186
  },
  "R&J씨어터": {
    "name": "R&J씨어터",
    "address": "서울 종로구 동숭동 31-9",
    "district": "종로구",
    "lat": 37.5803067001369,
    "lng": 127.005275631517
  },
  "스타스테이지": {
    "name": "스타스테이지",
    "address": "서울 종로구 동숭동 1-54",
    "district": "종로구",
    "lat": 37.58271063549632,
    "lng": 127.0028167796696
  },
  "허리우드극장 4층 낭만극장": {
    "name": "허리우드극장 4층 낭만극장",
    "address": "서울 종로구 삼일대로 428 허리우드극장",
    "district": "종로구",
    "lat": 37.573,
    "lng": 126.9794
  },
  "링크아트센터드림 드림1관": {
    "name": "링크아트센터드림 드림1관",
    "address": "서울 종로구 동숭길 123 링크아트센터드림",
    "district": "종로구",
    "lat": 37.573,
    "lng": 126.9794
  },
  "뮤지컬펍 스폿라이트": {
    "name": "뮤지컬펍 스폿라이트",
    "address": "서울 종로구 명륜4가 16-1",
    "district": "종로구",
    "lat": 37.5831296267381,
    "lng": 127.00100874789
  },
  "올림아트센터": {
    "name": "올림아트센터",
    "address": "서울 종로구 동숭동 187-12",
    "district": "종로구",
    "lat": 37.5796958662325,
    "lng": 127.004289528866
  },
  "소월아트홀": {
    "name": "소월아트홀",
    "address": "소월아트홀, 고산자로12길, 행당동, 행당1동, 성동구, 서울특별시, 04744, 대한민국",
    "district": "성동구",
    "lat": 37.559331,
    "lng": 127.0360402
  },
  "연세대학교 백주년기념관": {
    "name": "연세대학교 백주년기념관",
    "address": "서울 서대문구 냉천동 68",
    "district": "서대문구",
    "lat": 37.5672614465493,
    "lng": 126.961818334834
  },
  "뮤지컬펍 커튼콜": {
    "name": "뮤지컬펍 커튼콜",
    "address": "서울 종로구 동숭동 1-66",
    "district": "종로구",
    "lat": 37.5824907861105,
    "lng": 127.003095278525
  },
  "올림픽공원 우리금융아트홀": {
    "name": "올림픽공원 우리금융아트홀",
    "address": "서울 송파구 방이동 88-2",
    "district": "송파구",
    "lat": 37.516745478832,
    "lng": 127.125014546617
  },
  "와일드 와일드 전용관 (명보아트홀)": {
    "name": "와일드 와일드 전용관 (명보아트홀)",
    "address": "서울 중구 마른내로 47 명보극장",
    "district": "중구",
    "lat": 37.5637,
    "lng": 126.9975
  },
  "서울숲씨어터 1관": {
    "name": "서울숲씨어터 1관",
    "address": "서울 성동구 성수동1가 685-696",
    "district": "성동구",
    "lat": 37.5456773288432,
    "lng": 127.042914261633
  },
  "터치파이브 전용관": {
    "name": "터치파이브 전용관",
    "address": "서울 마포구 서교동 361-18",
    "district": "마포구",
    "lat": 37.5512808384722,
    "lng": 126.923597529606
  },
  "미마지아트센터 물빛극장": {
    "name": "미마지아트센터 물빛극장",
    "address": "서울 종로구 동숭동 1-133",
    "district": "종로구",
    "lat": 37.5802707255611,
    "lng": 127.003527652339
  },
  "명보아트홀 B1F 다온홀": {
    "name": "명보아트홀 B1F 다온홀",
    "address": "서울 중구 마른내로 47 명보극장",
    "district": "중구",
    "lat": 37.5637,
    "lng": 126.9975
  },
  "구로아트밸리 예술극장": {
    "name": "구로아트밸리 예술극장",
    "address": "구로아트밸리 예술극장, 가마산로23길, 구로5동, 구로구, 서울특별시, 08284, 대한민국",
    "district": "구로구",
    "lat": 37.496559,
    "lng": 126.888832
  },
  "목동아이스링크": {
    "name": "목동아이스링크",
    "address": "목동아이스링크, 939, 안양천로, 목1동, 양천구, 서울특별시, 07990, 대한민국",
    "district": "양천구",
    "lat": 37.5307847,
    "lng": 126.8792558
  },
  "플러스씨어터": {
    "name": "플러스씨어터",
    "address": "서울 종로구 동숭동 1-144",
    "district": "종로구",
    "lat": 37.5808257236473,
    "lng": 127.003971468634
  },
  "대학로 서연아트홀": {
    "name": "대학로 서연아트홀",
    "address": "서울 종로구 명륜2가 21-10",
    "district": "종로구",
    "lat": 37.5839107908654,
    "lng": 127.000579668144
  },
  "대학로 라온씨어터": {
    "name": "대학로 라온씨어터",
    "address": "서울 종로구 동숭동 1-113",
    "district": "종로구",
    "lat": 37.5816321468766,
    "lng": 127.002788435791
  },
  "성신여대 운정그린캠퍼스 대강당": {
    "name": "성신여대 운정그린캠퍼스 대강당",
    "address": "서울 강북구 미아동 147",
    "district": "강북구",
    "lat": 37.6319520108856,
    "lng": 127.027270994333
  },
  "JTN 아트홀 2관": {
    "name": "JTN 아트홀 2관",
    "address": "서울 종로구 이화동 139",
    "district": "종로구",
    "lat": 37.5766451124799,
    "lng": 127.003930492635
  },
  "브이씨어터": {
    "name": "브이씨어터",
    "address": "서울 종로구 혜화동 74-6",
    "district": "종로구",
    "lat": 37.5871705849656,
    "lng": 127.000181154195
  },
  "해당공연 공연장－서울": {
    "name": "해당공연 공연장－서울",
    "address": "정보 없음",
    "district": ""
  },
  "지구인아트홀": {
    "name": "지구인아트홀",
    "address": "서울 종로구 명륜2가 21-1",
    "district": "종로구",
    "lat": 37.584490129609556,
    "lng": 127.00056042569359
  },
  "국립정동극장": {
    "name": "국립정동극장",
    "address": "서울 중구 정동 8-11",
    "district": "중구",
    "lat": 37.5658589281598,
    "lng": 126.972775755916
  },
  "명보아트홀 지하3층 점프 전용극장": {
    "name": "명보아트홀 지하3층 점프 전용극장",
    "address": "서울 중구 마른내로 47 명보극장",
    "district": "중구",
    "lat": 37.5637,
    "lng": 126.9975
  },
  "잠실종합운동장 내 빅탑": {
    "name": "잠실종합운동장 내 빅탑",
    "address": "서울 송파구 올림픽로 25 서울종합운동장",
    "district": "송파구",
    "lat": 37.5145,
    "lng": 127.1066
  },
  "마포아트센터 플레이맥": {
    "name": "마포아트센터 플레이맥",
    "address": "서울 마포구 대흥동 30-3",
    "district": "마포구",
    "lat": 37.549936765090735,
    "lng": 126.94562703603319
  },
  "광화문 전용관(경향아트힐)": {
    "name": "광화문 전용관(경향아트힐)",
    "address": "서울 중구 정동 22",
    "district": "중구",
    "lat": 37.56815390855725,
    "lng": 126.96967004827121
  },
  "서대문 전용관(NH아트홀)": {
    "name": "서대문 전용관(NH아트홀)",
    "address": "서울 중구 충정로1가 85",
    "district": "중구",
    "lat": 37.56578553521637,
    "lng": 126.96757701216109
  },
  "후암스테이지": {
    "name": "후암스테이지",
    "address": "서울 종로구 명륜4가 113-1",
    "district": "종로구",
    "lat": 37.5820799726622,
    "lng": 127.000480025927
  },
  "KBS 아레나": {
    "name": "KBS 아레나",
    "address": "서울 강서구 화곡동 1093-76",
    "district": "강서구",
    "lat": 37.55675871689889,
    "lng": 126.84796255512903
  },
  "라이브홀 문래재즈IN": {
    "name": "라이브홀 문래재즈IN",
    "address": "서울 영등포구 도림로 475 지하공연장",
    "district": "영등포구",
    "lat": 37.5264,
    "lng": 126.8962
  },
  "성신여자대학교 운정그린캠퍼스 대강당": {
    "name": "성신여자대학교 운정그린캠퍼스 대강당",
    "address": "서울 강북구 미아동 147",
    "district": "강북구",
    "lat": 37.6319520108856,
    "lng": 127.027270994333
  },
  "잠실실내체육관": {
    "name": "잠실실내체육관",
    "address": "서울 송파구 잠실동 10",
    "district": "송파구",
    "lat": 37.516179021092626,
    "lng": 127.07598208253374
  },
  "K-POP STAGE": {
    "name": "K-POP STAGE",
    "address": "ทางพิเศษศรีรัช, จรัสเมือง, แขวงรองเมือง, เขตปทุมวัน, กรุงเทพมหานคร, 10330, ประเทศไทย",
    "district": "",
    "lat": 13.7476689,
    "lng": 100.5211381
  },
  "블루스퀘어 SOL트래블홀": {
    "name": "블루스퀘어 SOL트래블홀",
    "address": "서울 용산구 한남동 727-56",
    "district": "용산구",
    "lat": 37.54061156903693,
    "lng": 127.00263981122293
  },
  "로운아트홀": {
    "name": "로운아트홀",
    "address": "로운아트홀, 225, 목동서로, 목1동, 양천구, 서울특별시, 07995, 대한민국",
    "district": "양천구",
    "lat": 37.5270766,
    "lng": 126.8707009
  },
  "올림픽공원 올림픽홀": {
    "name": "올림픽공원 올림픽홀",
    "address": "서울 송파구 방이동 88",
    "district": "송파구",
    "lat": 37.51474165901363,
    "lng": 127.12753246584705
  },
  "홍대스테이지": {
    "name": "홍대스테이지",
    "address": "서울 마포구 서교동 344-12",
    "district": "마포구",
    "lat": 37.5530887222772,
    "lng": 126.924345999613
  },
  "앰배서더 서울 풀만 호텔": {
    "name": "앰배서더 서울 풀만 호텔",
    "address": "앰배서더 서울 풀만 호텔, 287, 동호로, 장충동1가, 장충동, 중구, 서울특별시, 04615, 대한민국",
    "district": "중구",
    "lat": 37.5600891,
    "lng": 127.0024757
  },
  "경희대학교 평화의전당": {
    "name": "경희대학교 평화의전당",
    "address": "평화의전당, 26, 경희대로, 회기동, 동대문구, 서울특별시, 02453, 대한민국",
    "district": "동대문구",
    "lat": 37.5986109,
    "lng": 127.052732
  },
  "웨스트브릿지 라이브홀": {
    "name": "웨스트브릿지 라이브홀",
    "address": "서울 마포구 서교동 338-10",
    "district": "마포구",
    "lat": 37.5536502874205,
    "lng": 126.926153898396
  },
  "연세대학교 대강당": {
    "name": "연세대학교 대강당",
    "address": "강원특별자치도 원주시 흥업면 흥업리 1352",
    "district": "원주시",
    "lat": 37.3036733740458,
    "lng": 127.907799823966
  },
  "광림아트센터 장천홀": {
    "name": "광림아트센터 장천홀",
    "address": "서울 강남구 신사동 570-8",
    "district": "강남구",
    "lat": 37.5242509314199,
    "lng": 127.026580135756
  },
  "신한카드 SOL페이 스퀘어 라이브홀": {
    "name": "신한카드 SOL페이 스퀘어 라이브홀",
    "address": "서울 마포구 서교동 490",
    "district": "마포구",
    "lat": 37.55112586142693,
    "lng": 126.91439609571269
  },
  "가빈아트홀": {
    "name": "가빈아트홀",
    "address": "서울 강남구 삼성동 151-7",
    "district": "강남구",
    "lat": 37.5096842548818,
    "lng": 127.055534174725
  },
  "코엑스 D홀": {
    "name": "코엑스 D홀",
    "address": "서울 강남구 삼성동 159",
    "district": "강남구",
    "lat": 37.51229009888268,
    "lng": 127.05896441335027
  },
  "마포아트센터 아트홀 맥": {
    "name": "마포아트센터 아트홀 맥",
    "address": "서울 마포구 대흥동 30-3",
    "district": "마포구",
    "lat": 37.54993450086795,
    "lng": 126.94560157555075
  },
  "동대문디자인플라자(DDP) 아트홀 1관": {
    "name": "동대문디자인플라자(DDP) 아트홀 1관",
    "address": "서울 중구 을지로7가 143",
    "district": "중구",
    "lat": 37.5677591424848,
    "lng": 127.009981269109
  },
  "KSPO DOME": {
    "name": "KSPO DOME",
    "address": "서울 송파구 방이동 88",
    "district": "송파구",
    "lat": 37.519261232854504,
    "lng": 127.12739989041407
  },
  "그랜드 인터컨티넨탈 서울 파르나스 호텔": {
    "name": "그랜드 인터컨티넨탈 서울 파르나스 호텔",
    "address": "서울 강남구 삼성동 159-8",
    "district": "강남구",
    "lat": 37.50919151190288,
    "lng": 127.06080669351726
  },
  "티켓링크 라이브 아레나 (올림픽 핸드볼경기장)": {
    "name": "티켓링크 라이브 아레나 (올림픽 핸드볼경기장)",
    "address": "서울 송파구 방이동 88-2",
    "district": "송파구",
    "lat": 37.5174000262378,
    "lng": 127.126314207965
  },
  "잠실 실내체육관": {
    "name": "잠실 실내체육관",
    "address": "잠실체육관, 백제고분로, 잠실동, 잠실2동, 송파구, 서울특별시, 05556, 대한민국",
    "district": "송파구",
    "lat": 37.5161737,
    "lng": 127.0759534
  },
  "메사홀": {
    "name": "메사홀",
    "address": "서울 중구 회현동1가 204",
    "district": "중구",
    "lat": 37.5603750366103,
    "lng": 126.979591236097
  },
  "EBS스페이스홀": {
    "name": "EBS스페이스홀",
    "address": "경기 고양시 일산동구 장항동 1775",
    "district": "고양시",
    "lat": 37.6617243166544,
    "lng": 126.754619654393
  },
  "KBS아레나": {
    "name": "KBS아레나",
    "address": "서울 강서구 화곡동 1093-76",
    "district": "강서구",
    "lat": 37.55675871689889,
    "lng": 126.84796255512903
  },
  "노들섬 라이브하우스": {
    "name": "노들섬 라이브하우스",
    "address": "노들섬 라이브하우스, 445, 양녕로, 이촌2동, 용산구, 서울특별시, 04427, 대한민국",
    "district": "용산구",
    "lat": 37.5181487,
    "lng": 126.9582184
  },
  "엠팟홀": {
    "name": "엠팟홀",
    "address": "서울 강남구 논현동 58-3",
    "district": "강남구",
    "lat": 37.51400667834185,
    "lng": 127.0297187188414
  },
  "은평문화예술회관 공연장": {
    "name": "은평문화예술회관 공연장",
    "address": "서울 은평구 녹번동 85-4",
    "district": "은평구",
    "lat": 37.6036618787743,
    "lng": 126.92780884732541
  },
  "세종대학교 대양홀": {
    "name": "세종대학교 대양홀",
    "address": "서울 광진구 군자동 98",
    "district": "광진구",
    "lat": 37.5486727561126,
    "lng": 127.074511116303
  },
  "예술의전당 콘서트홀": {
    "name": "예술의전당 콘서트홀",
    "address": "서울 서초구 서초동 700",
    "district": "서초구",
    "lat": 37.47931116650964,
    "lng": 127.01174677144716
  },
  "무신사 개러지": {
    "name": "무신사 개러지",
    "address": "서울 마포구 서교동 368-22",
    "district": "마포구",
    "lat": 37.55157469963834,
    "lng": 126.91972803364959
  },
  "명화라이브홀": {
    "name": "명화라이브홀",
    "address": "서울 영등포구 영등포동2가 94-139",
    "district": "영등포구",
    "lat": 37.5216013765703,
    "lng": 126.912475087298
  },
  "CJ아지트 광흥창": {
    "name": "CJ아지트 광흥창",
    "address": "서울 마포구 신정동 96-29",
    "district": "마포구",
    "lat": 37.544246399824,
    "lng": 126.930327330763
  },
  "코엑스 D홀 (COEX HALL D)": {
    "name": "코엑스 D홀 (COEX HALL D)",
    "address": "서울 강남구 삼성동 159",
    "district": "강남구",
    "lat": 37.51229009888268,
    "lng": 127.05896441335027
  },
  "올림픽공원 KSPO DOME": {
    "name": "올림픽공원 KSPO DOME",
    "address": "서울 송파구 방이동 88",
    "district": "송파구",
    "lat": 37.519261232854504,
    "lng": 127.12739989041407
  },
  "홍대 롤링홀": {
    "name": "홍대 롤링홀",
    "address": "홍대 롤링홀, 35, 어울마당로, 홍대, 서교동, 마포구, 서울특별시, 04048, 대한민국",
    "district": "마포구",
    "lat": 37.5484545,
    "lng": 126.920038
  },
  "세종문화회관 대극장": {
    "name": "세종문화회관 대극장",
    "address": "세종문화회관 대극장, 175, 세종대로, 중학동, 종로1·2·3·4가동, 종로구, 서울특별시, 03172, 대한민국",
    "district": "종로구",
    "lat": 37.5725331,
    "lng": 126.975649
  },
  "SA HALL": {
    "name": "SA HALL",
    "address": "SA hall, Palakkad - Koduvayur - Meenakshipuram Road, Ambalappuram SC Colony, Yakkara, Palakkad, Kerala, 678001, India",
    "district": "",
    "lat": 10.749976,
    "lng": 76.651399
  },
  "사천문화예술회관 대공연장": {
    "name": "사천문화예술회관 대공연장",
    "address": "경남 사천시 동림동 190",
    "district": "사천시",
    "lat": 34.9398894924245,
    "lng": 128.075502476738
  },
  "예림당아트홀": {
    "name": "예림당아트홀",
    "address": "예림당아트홀.신한은행전산센터, 역삼로, 역삼동, 역삼2동, 강남구, 서울특별시, 06227, 대한민국",
    "district": "강남구",
    "lat": 37.498086,
    "lng": 127.0441265
  },
  "엠피엠지 2층 LOUNGE M.": {
    "name": "엠피엠지 2층 LOUNGE M.",
    "address": "서울 마포구 서강로 78",
    "district": "마포구",
    "lat": 37.5665,
    "lng": 126.9018
  },
  "KT＆G 상상마당 홍대 라이브홀": {
    "name": "KT＆G 상상마당 홍대 라이브홀",
    "address": "서울 마포구 어울마당로 65 상상마당 빌딩 지하 2층",
    "district": "마포구",
    "lat": 37.5665,
    "lng": 126.9018
  },
  "홍대 플렉스라운지": {
    "name": "홍대 플렉스라운지",
    "address": "서울 마포구 서교동 372-5",
    "district": "마포구",
    "lat": 37.5525211376372,
    "lng": 126.918980103803
  },
  "스카이아트홀": {
    "name": "스카이아트홀",
    "address": "스카이아트홀, 65, 화곡로63길, 등촌3동, 강서구, 서울특별시, 07576, 대한민국",
    "district": "강서구",
    "lat": 37.5577878,
    "lng": 126.849544
  },
  "인천종합문화예술회관 소공연장": {
    "name": "인천종합문화예술회관 소공연장",
    "address": "인천 남동구 구월동 1408",
    "district": "남동구",
    "lat": 37.447174922188,
    "lng": 126.699673872945
  },
  "흰물결 아트센터 화이트홀": {
    "name": "흰물결 아트센터 화이트홀",
    "address": "서울 서초구 서초동 1720-4",
    "district": "서초구",
    "lat": 37.4934501439877,
    "lng": 127.007327567463
  },
  "그랜드 인터컨티넨탈 서울 파르나스 5층 그랜드볼룸": {
    "name": "그랜드 인터컨티넨탈 서울 파르나스 5층 그랜드볼룸",
    "address": "서울 강남구 테헤란로 521 그랜드 인터컨티넨탈 서울 파르나스",
    "district": "강남구",
    "lat": 37.5172,
    "lng": 127.0473
  },
  "워커힐호텔 비스타홀": {
    "name": "워커힐호텔 비스타홀",
    "address": "서울 광진구 광장동 22-1",
    "district": "광진구",
    "lat": 37.5549478643539,
    "lng": 127.110583196592
  },
  "윤당아트홀": {
    "name": "윤당아트홀",
    "address": "윤당아트홀, 언주로164길, 신사동, 강남구, 서울특별시, 06020, 대한민국",
    "district": "강남구",
    "lat": 37.5256474,
    "lng": 127.0337328
  },
  "구름아래소극장": {
    "name": "구름아래소극장",
    "address": "서울 마포구 서교동 337-11",
    "district": "마포구",
    "lat": 37.5541923618684,
    "lng": 126.92855259799
  },
  "언더시티": {
    "name": "언더시티",
    "address": "서울 성동구 성수동2가 19-7",
    "district": "성동구",
    "lat": 37.5431486395019,
    "lng": 127.063907544925
  },
  "벨로주 홍대": {
    "name": "벨로주 홍대",
    "address": "서울 마포구 서교동 372-6",
    "district": "마포구",
    "lat": 37.5524309259852,
    "lng": 126.918817238433
  },
  "KT＆G 상상마당 라이브홀": {
    "name": "KT＆G 상상마당 라이브홀",
    "address": "서울 마포구 서교동 367-5",
    "district": "마포구",
    "lat": 37.5509224009872,
    "lng": 126.921100311063
  },
  "한양대학교 올림픽체육관": {
    "name": "한양대학교 올림픽체육관",
    "address": "서울 성동구 사근동 110",
    "district": "성동구",
    "lat": 37.5565243594839,
    "lng": 127.050005234938
  },
  "나인진홀 1관": {
    "name": "나인진홀 1관",
    "address": "서울 종로구 동숭동 1-149",
    "district": "종로구",
    "lat": 37.5803409790355,
    "lng": 127.004256734678
  },
  "베짱이홀": {
    "name": "베짱이홀",
    "address": "서울 마포구 상수동 313-3",
    "district": "마포구",
    "lat": 37.5484791788445,
    "lng": 126.921528378505
  },
  "강남씨어터": {
    "name": "강남씨어터",
    "address": "서울 강남구 역삼동 829-20",
    "district": "강남구",
    "lat": 37.49536123749658,
    "lng": 127.03323385255213
  },
  "연남스페이스": {
    "name": "연남스페이스",
    "address": "서울 마포구 연남동 504-12",
    "district": "마포구",
    "lat": 37.5621594869202,
    "lng": 126.920873413728
  },
  "캔버스N홀": {
    "name": "캔버스N홀",
    "address": "서울 강남구 언주로172길 25 지하 1층",
    "district": "강남구",
    "lat": 37.5172,
    "lng": 127.0473
  },
  "YES24 LIVE HALL": {
    "name": "YES24 LIVE HALL",
    "address": "예스24 라이브홀, 20, 구천면로, 광장동, 광진구, 서울특별시, 04968, 대한민국",
    "district": "광진구",
    "lat": 37.5457518,
    "lng": 127.1079984
  },
  "고려대학교 화정체육관": {
    "name": "고려대학교 화정체육관",
    "address": "서울 성북구 안암동5가 126-28",
    "district": "성북구",
    "lat": 37.592669420638,
    "lng": 127.024887888227
  },
  "명화 라이브홀 5층 라운지": {
    "name": "명화 라이브홀 5층 라운지",
    "address": "서울 영등포구 버드나루로 30",
    "district": "영등포구",
    "lat": 37.5264,
    "lng": 126.8962
  },
  "흰물결아트센터 화이트홀": {
    "name": "흰물결아트센터 화이트홀",
    "address": "서울 서초구 서초동 1720-4",
    "district": "서초구",
    "lat": 37.4934501439877,
    "lng": 127.007327567463
  },
  "파랑새극장": {
    "name": "파랑새극장",
    "address": "서울 종로구 동숭동 1-115",
    "district": "종로구",
    "lat": 37.58158440422107,
    "lng": 127.00232652533127
  },
  "꿈빛극장": {
    "name": "꿈빛극장",
    "address": "서울 성북구 길음동 1286-8",
    "district": "성북구",
    "lat": 37.6037557517832,
    "lng": 127.02219631446
  },
  "라움아트센터 마제스틱 볼룸": {
    "name": "라움아트센터 마제스틱 볼룸",
    "address": "서울 강남구 언주로 564 라움아트센터",
    "district": "강남구",
    "lat": 37.5172,
    "lng": 127.0473
  },
  "공감센터 공감홀": {
    "name": "공감센터 공감홀",
    "address": "서울 중구 퇴계로88길 38",
    "district": "중구",
    "lat": 37.5637,
    "lng": 126.9975
  },
  "SA Hall": {
    "name": "SA Hall",
    "address": "SA hall, Palakkad - Koduvayur - Meenakshipuram Road, Ambalappuram SC Colony, Yakkara, Palakkad, Kerala, 678001, India",
    "district": "",
    "lat": 10.749976,
    "lng": 76.651399
  },
  "고척스카이돔": {
    "name": "고척스카이돔",
    "address": "고척스카이돔, 430, 경인로, 고척동, 고척1동, 구로구, 서울특별시, 08275, 대한민국",
    "district": "구로구",
    "lat": 37.4981936,
    "lng": 126.8670731
  },
  "이화여자대학교 대강당": {
    "name": "이화여자대학교 대강당",
    "address": "서울 서대문구 신촌동 134",
    "district": "서대문구",
    "lat": 37.56451271290699,
    "lng": 126.93876579732564
  },
  "재즈런치": {
    "name": "재즈런치",
    "address": "서울 송파구 가락동 145-20",
    "district": "송파구",
    "lat": 37.4955270007745,
    "lng": 127.124843469507
  },
  "푸르지오 아트홀": {
    "name": "푸르지오 아트홀",
    "address": "서울 중구 을지로4가 323",
    "district": "중구",
    "lat": 37.5661395435934,
    "lng": 126.997328727022
  },
  "티켓링크 라이브 아레나(핸드볼경기장)": {
    "name": "티켓링크 라이브 아레나(핸드볼경기장)",
    "address": "서울 송파구 방이동 88-2",
    "district": "송파구",
    "lat": 37.5174000262378,
    "lng": 127.126314207965
  },
  "무신사개러지": {
    "name": "무신사개러지",
    "address": "서울 마포구 서교동 368-22",
    "district": "마포구",
    "lat": 37.55157469963834,
    "lng": 126.91972803364959
  },
  "잠실 학생체육관": {
    "name": "잠실 학생체육관",
    "address": "서울특별시 학생체육관, 올림픽로, 잠실동, 잠실2동, 송파구, 서울특별시, 05556, 대한민국",
    "district": "송파구",
    "lat": 37.5122256,
    "lng": 127.0753176
  },
  "광주 조선대학교 해오름관": {
    "name": "광주 조선대학교 해오름관",
    "address": "광주 동구 서석동 243",
    "district": "동구",
    "lat": 35.1408256658552,
    "lng": 126.932989141373
  },
  "라움아트센터 4F 체임버홀": {
    "name": "라움아트센터 4F 체임버홀",
    "address": "서울 강남구 언주로 564 라움아트센터",
    "district": "강남구",
    "lat": 37.5172,
    "lng": 127.0473
  },
  "KT&G 상상마당 홍대 라이브홀": {
    "name": "KT&G 상상마당 홍대 라이브홀",
    "address": "서울 마포구 어울마당로 65 상상마당 빌딩 지하 2층",
    "district": "마포구",
    "lat": 37.5665,
    "lng": 126.9018
  },
  "재즈클럽 그루브": {
    "name": "재즈클럽 그루브",
    "address": "서울 서초구 잠원동 36-3",
    "district": "서초구",
    "lat": 37.5126583680703,
    "lng": 127.018468391393
  },
  "인스파이어 아레나": {
    "name": "인스파이어 아레나",
    "address": "인스파이어 아레나, 공항문화로, 운서동, 중구, 인천광역시, 22384, 대한민국",
    "district": "중구",
    "lat": 37.4667814,
    "lng": 126.3906416
  },
  "상명아트센터 계당홀": {
    "name": "상명아트센터 계당홀",
    "address": "서울 종로구 홍지동 7-1",
    "district": "종로구",
    "lat": 37.6032993689949,
    "lng": 126.956613265866
  },
  "Dule Studio": {
    "name": "Dule Studio",
    "address": "두레 스튜디오, 이화여대7길, 대현동, 신촌동, 서대문구, 서울특별시, 03766, 대한민국",
    "district": "서대문구",
    "lat": 37.5589646,
    "lng": 126.9446965
  },
  "SPACE BRICK": {
    "name": "SPACE BRICK",
    "address": "Open Space, 200, Brick Lane, Spitalfields, Whitechapel, London Borough of Tower Hamlets, Greater London, England, E1 6SA, United Kingdom",
    "district": "",
    "lat": 51.5240804,
    "lng": -0.0713833
  },
  "JS 아트홀": {
    "name": "JS 아트홀",
    "address": "서울 종로구 동숭동 25-11",
    "district": "종로구",
    "lat": 37.5824312810645,
    "lng": 127.004347425046
  },
  "롯데콘서트홀": {
    "name": "롯데콘서트홀",
    "address": "롯데콘서트홀, 올림픽로, 신천동, 잠실6동, 송파구, 서울특별시, 05551, 대한민국",
    "district": "송파구",
    "lat": 37.5135349,
    "lng": 127.1036896
  },
  "홍대 BENDER": {
    "name": "홍대 BENDER",
    "address": "서울 마포구 상수동 86-35",
    "district": "마포구",
    "lat": 37.550061642101234,
    "lng": 126.9233724437275
  },
  "해바라기 소극장": {
    "name": "해바라기 소극장",
    "address": "서울 종로구 동숭길 76 해바라기소극장",
    "district": "종로구",
    "lat": 37.5816428205946,
    "lng": 127.004374097465
  },
  "대학로 아트하우스": {
    "name": "대학로 아트하우스",
    "address": "서울 종로구 동숭동 1-96",
    "district": "종로구",
    "lat": 37.5816023886196,
    "lng": 127.00371338439
  },
  "대학로 해피씨어터": {
    "name": "대학로 해피씨어터",
    "address": "서울 종로구 동숭동 1-60",
    "district": "종로구",
    "lat": 37.5818925389481,
    "lng": 127.00257220795
  },
  "신세계 스튜디오 1관": {
    "name": "신세계 스튜디오 1관",
    "address": "서울 성북구 동소문로20길 37-13 2,3층",
    "district": "성북구",
    "lat": 37.5891,
    "lng": 127.0182
  },
  "대학로극장 쿼드": {
    "name": "대학로극장 쿼드",
    "address": "대학로극장 쿼드, 122, 동숭길, 대학로거리, 이화동, 종로구, 서울특별시, 03085, 대한민국",
    "district": "종로구",
    "lat": 37.5836392,
    "lng": 127.0038138
  },
  "NC문화재단 Stage Black": {
    "name": "NC문화재단 Stage Black",
    "address": "서울 종로구 이화장길 100",
    "district": "종로구",
    "lat": 37.573,
    "lng": 126.9794
  },
  "종로 아이들극장": {
    "name": "종로 아이들극장",
    "address": "서울 종로구 혜화동 1-21",
    "district": "종로구",
    "lat": 37.59039432628729,
    "lng": 126.99845219709556
  },
  "대학로 한예극장 1관": {
    "name": "대학로 한예극장 1관",
    "address": "서울 종로구 이화장길 66 동진빌딩 1층",
    "district": "종로구",
    "lat": 37.573,
    "lng": 126.9794
  },
  "단막극장": {
    "name": "단막극장",
    "address": "서울 종로구 동숭동 12-8",
    "district": "종로구",
    "lat": 37.58330344049037,
    "lng": 127.0044074799853
  },
  "대학로 세우아트센터 2관": {
    "name": "대학로 세우아트센터 2관",
    "address": "서울 종로구 동숭동 1-86",
    "district": "종로구",
    "lat": 37.58188889762789,
    "lng": 127.0039285040281
  },
  "종로 반쥴": {
    "name": "종로 반쥴",
    "address": "서울 종로구 관철동 12-16",
    "district": "종로구",
    "lat": 37.5690615964593,
    "lng": 126.986190337567
  },
  "노원어린이극장": {
    "name": "노원어린이극장",
    "address": "서울 노원구 상계동 723",
    "district": "노원구",
    "lat": 37.6543751628167,
    "lng": 127.063720574449
  },
  "아스가르드 씨어터": {
    "name": "아스가르드 씨어터",
    "address": "서울 종로구 혜화동 201",
    "district": "종로구",
    "lat": 37.5836656943776,
    "lng": 127.00255868303
  },
  "부암아트홀": {
    "name": "부암아트홀",
    "address": "서울 종로구 부암동 208-71",
    "district": "종로구",
    "lat": 37.595744372558,
    "lng": 126.96410017884
  },
  "하땅세극장": {
    "name": "하땅세극장",
    "address": "서울 성북구 성북동1가 35-29",
    "district": "성북구",
    "lat": 37.5886931503092,
    "lng": 127.005151677341
  },
  "광복극장": {
    "name": "광복극장",
    "address": "서울 종로구 명륜3가 122-2",
    "district": "종로구",
    "lat": 37.5838999445025,
    "lng": 126.997090338057
  },
  "연극실험실 혜화동 1번지": {
    "name": "연극실험실 혜화동 1번지",
    "address": "서울 종로구 혜화동 88-1",
    "district": "종로구",
    "lat": 37.5863939214017,
    "lng": 127.00136317115
  },
  "선돌극장": {
    "name": "선돌극장",
    "address": "선돌극장, 혜화로5길, 명륜1가, 혜화동, 종로구, 서울특별시, 03076, 대한민국",
    "district": "종로구",
    "lat": 37.586824,
    "lng": 126.999666
  },
  "댕로홀": {
    "name": "댕로홀",
    "address": "서울 종로구 동숭동 1-78",
    "district": "종로구",
    "lat": 37.5818420527808,
    "lng": 127.003717924826
  },
  "나루아트센터 스페이스76(전시실)": {
    "name": "나루아트센터 스페이스76(전시실)",
    "address": "서울 광진구 능동로 76 나루아트센터",
    "district": "광진구",
    "lat": 37.5385,
    "lng": 127.0824
  },
  "국립극단 명동예술극장": {
    "name": "국립극단 명동예술극장",
    "address": "서울 중구 명동1가 54",
    "district": "중구",
    "lat": 37.5640085633411,
    "lng": 126.984212773704
  },
  "더줌아트센터": {
    "name": "더줌아트센터",
    "address": "서울 용산구 한남동 810",
    "district": "용산구",
    "lat": 37.53582887875918,
    "lng": 127.00704772134655
  },
  "국립극장 하늘극장": {
    "name": "국립극장 하늘극장",
    "address": "서울 중구 장충동2가 산 14-67",
    "district": "중구",
    "lat": 37.552859777890085,
    "lng": 127.00042551711707
  },
  "JTN 아트홀 3관": {
    "name": "JTN 아트홀 3관",
    "address": "서울 종로구 이화동 139",
    "district": "종로구",
    "lat": 37.5766306962676,
    "lng": 127.00393954831
  },
  "상명아트홀 1관": {
    "name": "상명아트홀 1관",
    "address": "서울 종로구 동숭동 1-38",
    "district": "종로구",
    "lat": 37.583359352573,
    "lng": 127.002739817504
  },
  "상명아트홀 2관": {
    "name": "상명아트홀 2관",
    "address": "서울 종로구 동숭동 1-38",
    "district": "종로구",
    "lat": 37.5833521449406,
    "lng": 127.002726231369
  },
  "연희예술극장": {
    "name": "연희예술극장",
    "address": "서울 서대문구 연희동 193-10",
    "district": "서대문구",
    "lat": 37.565633222642724,
    "lng": 126.9285586508086
  },
  "부암루프탑": {
    "name": "부암루프탑",
    "address": "서울 종로구 누하동 236",
    "district": "종로구",
    "lat": 37.5787782934655,
    "lng": 126.969105356356
  },
  "성균소극장": {
    "name": "성균소극장",
    "address": "서울 종로구 명륜2가 149",
    "district": "종로구",
    "lat": 37.584141429518,
    "lng": 126.997993798592
  },
  "스케치홀": {
    "name": "스케치홀",
    "address": "서울 종로구 동숭동 1-36",
    "district": "종로구",
    "lat": 37.5831701538168,
    "lng": 127.002275627788
  },
  "아르코꿈밭극장": {
    "name": "아르코꿈밭극장",
    "address": "서울 종로구 동숭동 1-79",
    "district": "종로구",
    "lat": 37.58205739027816,
    "lng": 127.00371680339791
  },
  "대학로 열린극장": {
    "name": "대학로 열린극장",
    "address": "서울 종로구 명륜2가 21-18",
    "district": "종로구",
    "lat": 37.5836873454728,
    "lng": 127.000335119644
  },
  "하땅세 라이트스튜디오": {
    "name": "하땅세 라이트스튜디오",
    "address": "서울 성북구 동소문동2가 27",
    "district": "성북구",
    "lat": 37.5887290579306,
    "lng": 127.007597312429
  },
  "JTN 아트홀 4관": {
    "name": "JTN 아트홀 4관",
    "address": "서울 종로구 이화동 139",
    "district": "종로구",
    "lat": 37.5766306962676,
    "lng": 127.00393954831
  },
  "초록씨어터": {
    "name": "초록씨어터",
    "address": "서울 종로구 동숭동 1-33",
    "district": "종로구",
    "lat": 37.5827016395697,
    "lng": 127.002151077463
  },
  "아라아트홀": {
    "name": "아라아트홀",
    "address": "서울 종로구 동숭동 1-58",
    "district": "종로구",
    "lat": 37.5822871744261,
    "lng": 127.002558635851
  },
  "대학로 제나아트홀": {
    "name": "대학로 제나아트홀",
    "address": "서울 종로구 동숭동 1-113",
    "district": "종로구",
    "lat": 37.5816114235726,
    "lng": 127.00280768122
  },
  "코델아트홀": {
    "name": "코델아트홀",
    "address": "서울 종로구 동숭동 50-24",
    "district": "종로구",
    "lat": 37.5817465280251,
    "lng": 127.004290778649
  },
  "라온아트홀": {
    "name": "라온아트홀",
    "address": "서울 종로구 동숭동 1-61",
    "district": "종로구",
    "lat": 37.5818528899711,
    "lng": 127.002803161755
  },
  "모모씨어터": {
    "name": "모모씨어터",
    "address": "서울 종로구 명륜3가 122-1",
    "district": "종로구",
    "lat": 37.5839720275016,
    "lng": 126.997237516737
  },
  "동숭무대소극장": {
    "name": "동숭무대소극장",
    "address": "서울 종로구 명륜1가 33-30",
    "district": "종로구",
    "lat": 37.5887292998328,
    "lng": 126.99921649177
  },
  "소극장 공유": {
    "name": "소극장 공유",
    "address": "서울 종로구 혜화동 37-1",
    "district": "종로구",
    "lat": 37.5876012160981,
    "lng": 127.003206447715
  },
  "물빛극장": {
    "name": "물빛극장",
    "address": "서울 종로구 동숭동 1-133",
    "district": "종로구",
    "lat": 37.5802707255611,
    "lng": 127.003527652339
  },
  "한바탕 소극장": {
    "name": "한바탕 소극장",
    "address": "서울 송파구 문정동 13-1",
    "district": "송파구",
    "lat": 37.4882248525501,
    "lng": 127.127736130831
  },
  "시윤아트홀": {
    "name": "시윤아트홀",
    "address": "서울 종로구 동숭동 1-115",
    "district": "종로구",
    "lat": 37.5815303444904,
    "lng": 127.002332184291
  },
  "더더더": {
    "name": "더더더",
    "address": "서울 중구 광희동1가 39",
    "district": "중구",
    "lat": 37.5660431001951,
    "lng": 127.003978606954
  },
  "소극장 혜화당": {
    "name": "소극장 혜화당",
    "address": "서울 종로구 동숭동 1-89",
    "district": "종로구",
    "lat": 37.5812365749468,
    "lng": 127.004025832403
  },
  "플레이더씨어터": {
    "name": "플레이더씨어터",
    "address": "서울 종로구 동숭동 130-47",
    "district": "종로구",
    "lat": 37.580548195324035,
    "lng": 127.00458505936838
  },
  "올웨이즈씨어터": {
    "name": "올웨이즈씨어터",
    "address": "서울 종로구 동숭동 1-35",
    "district": "종로구",
    "lat": 37.583089067769,
    "lng": 127.002094481016
  },
  "H씨어터": {
    "name": "H씨어터",
    "address": "서울 종로구 이화동 57",
    "district": "종로구",
    "lat": 37.5776001376023,
    "lng": 127.004718462711
  },
  "한예극장": {
    "name": "한예극장",
    "address": "서울 종로구 동숭동 199-17",
    "district": "종로구",
    "lat": 37.578212814024,
    "lng": 127.004709444748
  },
  "예인아트홀": {
    "name": "예인아트홀",
    "address": "서울 강남구 청담동 100-7",
    "district": "강남구",
    "lat": 37.5270380007738,
    "lng": 127.046179838546
  },
  "나온씨어터": {
    "name": "나온씨어터",
    "address": "서울 종로구 명륜1가 36-4",
    "district": "종로구",
    "lat": 37.5877057731972,
    "lng": 126.999384071329
  },
  "여행자극장": {
    "name": "여행자극장",
    "address": "서울 성북구 성북동1가 35-8",
    "district": "성북구",
    "lat": 37.58896166775585,
    "lng": 127.0046286005779
  },
  "씨어터 조이": {
    "name": "씨어터 조이",
    "address": "서울 종로구 동숭동 192-18",
    "district": "종로구",
    "lat": 37.5786741257057,
    "lng": 127.0046415487
  },
  "신도림 오페라하우스 지하소극장": {
    "name": "신도림 오페라하우스 지하소극장",
    "address": "서울 구로구 새말로 107-32",
    "district": "구로구",
    "lat": 37.4954,
    "lng": 126.8874
  },
  "북극곰소극장": {
    "name": "북극곰소극장",
    "address": "서울 종로구 이화동 28-18",
    "district": "종로구",
    "lat": 37.5773874578338,
    "lng": 127.005737308302
  },
  "대학로 소극장 혜화당": {
    "name": "대학로 소극장 혜화당",
    "address": "서울 종로구 동숭동 1-89",
    "district": "종로구",
    "lat": 37.5812365749468,
    "lng": 127.004025832403
  },
  "지인시어터(구.알과핵소극장)": {
    "name": "지인시어터(구.알과핵소극장)",
    "address": "서울 종로구 동숭동 1-131",
    "district": "종로구",
    "lat": 37.5799202395183,
    "lng": 127.003508390036
  },
  "소극장 산울림": {
    "name": "소극장 산울림",
    "address": "서울 마포구 서교동 327-9",
    "district": "마포구",
    "lat": 37.5550834709886,
    "lng": 126.93009542405
  },
  "창덕궁 소극장": {
    "name": "창덕궁 소극장",
    "address": "서울 종로구 와룡동 13",
    "district": "종로구",
    "lat": 37.5772214457464,
    "lng": 126.990671800431
  },
  "아루또소극장": {
    "name": "아루또소극장",
    "address": "서울 종로구 동숭동 1-47",
    "district": "종로구",
    "lat": 37.5829196748152,
    "lng": 127.00241827098
  },
  "안똔체홉극장": {
    "name": "안똔체홉극장",
    "address": "서울 종로구 명륜3가 140-4",
    "district": "종로구",
    "lat": 37.5830818402188,
    "lng": 126.996997533451
  },
  "대학로 지즐소극장": {
    "name": "대학로 지즐소극장",
    "address": "서울 종로구 명륜2가 8-16",
    "district": "종로구",
    "lat": 37.5847361016711,
    "lng": 126.999687519191
  },
  "홍대 씨어터 윤": {
    "name": "홍대 씨어터 윤",
    "address": "서울 마포구 서교동 337-3",
    "district": "마포구",
    "lat": 37.554443391554,
    "lng": 126.929471313499
  },
  "대학로 스타릿홀": {
    "name": "대학로 스타릿홀",
    "address": "서울 종로구 대학로8가길 111 지하층",
    "district": "종로구",
    "lat": 37.573,
    "lng": 126.9794
  },
  "파랑씨어터": {
    "name": "파랑씨어터",
    "address": "서울 종로구 동숭동 1-57",
    "district": "종로구",
    "lat": 37.5824871968218,
    "lng": 127.002472599844
  },
  "성북마을극장": {
    "name": "성북마을극장",
    "address": "서울 성북구 동선동1가 4-7",
    "district": "성북구",
    "lat": 37.5916472435955,
    "lng": 127.017342023849
  },
  "대학로 드림시어터": {
    "name": "대학로 드림시어터",
    "address": "서울 종로구 동숭동 1-63",
    "district": "종로구",
    "lat": 37.5823502373355,
    "lng": 127.002848466031
  },
  "신한카드 SOL페이 스퀘어 드림홀": {
    "name": "신한카드 SOL페이 스퀘어 드림홀",
    "address": "서울 마포구 서교동 490",
    "district": "마포구",
    "lat": 37.55119703529659,
    "lng": 126.9143892242954
  },
  "제이원씨어터": {
    "name": "제이원씨어터",
    "address": "서울 종로구 명륜2가 21-23",
    "district": "종로구",
    "lat": 37.5842153271383,
    "lng": 127.000452867583
  },
  "씨어터 쿰": {
    "name": "씨어터 쿰",
    "address": "서울 종로구 명륜2가 8",
    "district": "종로구",
    "lat": 37.58442075361745,
    "lng": 126.9995516598612
  },
  "CKL스테이지": {
    "name": "CKL스테이지",
    "address": "서울 중구 다동 10",
    "district": "중구",
    "lat": 37.5685815964224,
    "lng": 126.981318589692
  },
  "북촌창우극장": {
    "name": "북촌창우극장",
    "address": "북촌창우극장, 29-6, 창덕궁길, 계동, 가회동, 종로구, 서울특별시, 03058, 대한민국",
    "district": "종로구",
    "lat": 37.5788878,
    "lng": 126.9888761
  },
  "설렘아트홀": {
    "name": "설렘아트홀",
    "address": "서울 광진구 화양동 111-73",
    "district": "광진구",
    "lat": 37.54704957988013,
    "lng": 127.07238208063842
  },
  "창작플랫폼 경험과 상상": {
    "name": "창작플랫폼 경험과 상상",
    "address": "서울 영등포구 당산동5가 7-2",
    "district": "영등포구",
    "lat": 37.5325920750248,
    "lng": 126.897170408544
  },
  "대학로 바탕골 소극장": {
    "name": "대학로 바탕골 소극장",
    "address": "서울 종로구 동숭동 1-60",
    "district": "종로구",
    "lat": 37.5818925389481,
    "lng": 127.00257220795
  },
  "대학로 TOM(티오엠) 2관": {
    "name": "대학로 TOM(티오엠) 2관",
    "address": "서울 종로구 동숭동 1-80",
    "district": "종로구",
    "lat": 37.5822745319552,
    "lng": 127.0036454894
  },
  "문래예술공장 박스씨어터": {
    "name": "문래예술공장 박스씨어터",
    "address": "서울 영등포구 문래동1가 30",
    "district": "영등포구",
    "lat": 37.513223072829,
    "lng": 126.900137835853
  },
  "NOL 서경스퀘어 스콘 2관": {
    "name": "NOL 서경스퀘어 스콘 2관",
    "address": "서울 종로구 동숭길 148",
    "district": "종로구",
    "lat": 37.573,
    "lng": 126.9794
  },
  "마루아트홀": {
    "name": "마루아트홀",
    "address": "서울 종로구 동숭동 1-58",
    "district": "종로구",
    "lat": 37.582299788139,
    "lng": 127.002567693402
  },
  "한성아트홀 2관": {
    "name": "한성아트홀 2관",
    "address": "서울 종로구 명륜2가 41-4",
    "district": "종로구",
    "lat": 37.5836981578662,
    "lng": 127.000022643222
  },
  "LG아트센터 서울 U+ 스테이지": {
    "name": "LG아트센터 서울 U+ 스테이지",
    "address": "서울 강서구 마곡중앙로 136 LG아트센터 서울",
    "district": "강서구",
    "lat": 37.5509,
    "lng": 126.8497
  },
  "관악아트홀": {
    "name": "관악아트홀",
    "address": "관악산입구.관악아트홀·중앙도서관, 신림로, 녹두거리, 대학동, 관악구, 서울특별시, 08825, 대한민국",
    "district": "관악구",
    "lat": 37.4680131,
    "lng": 126.9466902
  },
  "카페CIRCA1950": {
    "name": "카페CIRCA1950",
    "address": "서울 종로구 명륜2가 160-2",
    "district": "종로구",
    "lat": 37.5844225505375,
    "lng": 126.998818012333
  },
  "놀터예술공방": {
    "name": "놀터예술공방",
    "address": "서울 성북구 동소문동1가 48",
    "district": "성북구",
    "lat": 37.5894895305414,
    "lng": 127.007033529804
  },
  "명보아트홀 3층 라온홀": {
    "name": "명보아트홀 3층 라온홀",
    "address": "서울 중구 마른내로 47 명보극장",
    "district": "중구",
    "lat": 37.5637,
    "lng": 126.9975
  },
  "더굿씨어터": {
    "name": "더굿씨어터",
    "address": "서울 종로구 혜화동 185",
    "district": "종로구",
    "lat": 37.5839819526946,
    "lng": 127.00206506973008
  },
  "홍익대 대학로 아트센터 소극장": {
    "name": "홍익대 대학로 아트센터 소극장",
    "address": "서울 종로구 연건동 128-8",
    "district": "종로구",
    "lat": 37.5764145151565,
    "lng": 127.001390158431
  },
  "DS ART HALL 창선당": {
    "name": "DS ART HALL 창선당",
    "address": "서울시 종로구 청계천로 279",
    "district": "종로구",
    "lat": 37.573,
    "lng": 126.9794
  },
  "NOL 씨어터 대학로 우리투자증권홀(구. 중극장)": {
    "name": "NOL 씨어터 대학로 우리투자증권홀(구. 중극장)",
    "address": "서울특별시 종로구 동숭길 100",
    "district": "종로구",
    "lat": 37.573,
    "lng": 126.9794
  },
  "콘텐츠박스(KONTENTZ BOX)": {
    "name": "콘텐츠박스(KONTENTZ BOX)",
    "address": "서울 종로구 동숭동 1-145",
    "district": "종로구",
    "lat": 37.5806959747884,
    "lng": 127.00413901486
  },
  "예그린씨어터": {
    "name": "예그린씨어터",
    "address": "서울 종로구 동숭동 1-8",
    "district": "종로구",
    "lat": 37.5838855252471,
    "lng": 127.003043256729
  },
  "예스24스테이지 3관": {
    "name": "예스24스테이지 3관",
    "address": "서울 종로구 동숭동 1-52",
    "district": "종로구",
    "lat": 37.5827268419485,
    "lng": 127.00326058167471
  },
  "대학로 틴틴홀": {
    "name": "대학로 틴틴홀",
    "address": "서울 종로구 동숭동 1-97",
    "district": "종로구",
    "lat": 37.5816005915118,
    "lng": 127.00355488619
  },
  "컬쳐씨어터": {
    "name": "컬쳐씨어터",
    "address": "서울 종로구 동숭동 1-73",
    "district": "종로구",
    "lat": 37.5824763657644,
    "lng": 127.003260570751
  },
  "스테이션 사람 사람홀": {
    "name": "스테이션 사람 사람홀",
    "address": "서울 은평구 증산로17가길 15-7",
    "district": "은평구",
    "lat": 37.6027,
    "lng": 126.9291
  },
  "미아리고개예술극장": {
    "name": "미아리고개예술극장",
    "address": "서울 성북구 돈암동 51-49",
    "district": "성북구",
    "lat": 37.5977192575545,
    "lng": 127.021419977676
  },
  "예술의전당 자유소극장": {
    "name": "예술의전당 자유소극장",
    "address": "서울 서초구 서초동 700",
    "district": "서초구",
    "lat": 37.47963620014841,
    "lng": 127.01387459128874
  },
  "예스24아트원 2관": {
    "name": "예스24아트원 2관",
    "address": "서울 종로구 동숭동 1-181",
    "district": "종로구",
    "lat": 37.5803247701781,
    "lng": 127.003998612666
  },
  "링크아트센터드림 드림4관": {
    "name": "링크아트센터드림 드림4관",
    "address": "서울 종로구 동숭길 123 링크아트센터드림",
    "district": "종로구",
    "lat": 37.573,
    "lng": 126.9794
  },
  "도토리씨어터": {
    "name": "도토리씨어터",
    "address": "서울 종로구 동숭동 1-89",
    "district": "종로구",
    "lat": 37.5812239611894,
    "lng": 127.004021303229
  },
  "피카소 소극장": {
    "name": "피카소 소극장",
    "address": "서울 종로구 명륜4가 70-4",
    "district": "종로구",
    "lat": 37.5825629058052,
    "lng": 127.000294357422
  },
  "예술공간 혜화": {
    "name": "예술공간 혜화",
    "address": "서울 종로구 혜화동 74-38",
    "district": "종로구",
    "lat": 37.5866353944818,
    "lng": 127.000457411066
  },
  "대학로 올래홀": {
    "name": "대학로 올래홀",
    "address": "서울 종로구 동숭동 1-97",
    "district": "종로구",
    "lat": 37.5816005916481,
    "lng": 127.003550357673
  },
  "무하아트센터 2관": {
    "name": "무하아트센터 2관",
    "address": "서울 종로구 이화장길 72",
    "district": "종로구",
    "lat": 37.573,
    "lng": 126.9794
  },
  "연우소극장": {
    "name": "연우소극장",
    "address": "서울 종로구 혜화동 53-9",
    "district": "종로구",
    "lat": 37.5870029871665,
    "lng": 127.001770778281
  },
  "대학로 아트포레스트 1관": {
    "name": "대학로 아트포레스트 1관",
    "address": "서울 종로구 동숭동 1-66",
    "district": "종로구",
    "lat": 37.5824943902625,
    "lng": 127.003088485817
  },
  "봄날아트홀": {
    "name": "봄날아트홀",
    "address": "서울 종로구 동숭동 1-153",
    "district": "종로구",
    "lat": 37.579996799713,
    "lng": 127.004247658243
  },
  "대학로 스카이씨어터 2관": {
    "name": "대학로 스카이씨어터 2관",
    "address": "서울 종로구 동숭동 1-48",
    "district": "종로구",
    "lat": 37.5829557094935,
    "lng": 127.00265375932
  },
  "창조소극장": {
    "name": "창조소극장",
    "address": "서울 종로구 명륜2가 13",
    "district": "종로구",
    "lat": 37.584563111386,
    "lng": 127.000045286969
  },
  "맛있는극장": {
    "name": "맛있는극장",
    "address": "서울 종로구 혜화동 109-4",
    "district": "종로구",
    "lat": 37.5861993123491,
    "lng": 127.000760837731
  },
  "나인진홀 2관": {
    "name": "나인진홀 2관",
    "address": "서울 종로구 동숭동 1-149",
    "district": "종로구",
    "lat": 37.5803680063815,
    "lng": 127.004324662859
  },
  "대학로 공간아울": {
    "name": "대학로 공간아울",
    "address": "서울 종로구 동숭동 1-27",
    "district": "종로구",
    "lat": 37.581879029762234,
    "lng": 127.00229483475937
  },
  "레온갤러리 구의 플레이스라운드": {
    "name": "레온갤러리 구의 플레이스라운드",
    "address": "서울 광진구 구의동 252-111",
    "district": "광진구",
    "lat": 37.5378979244162,
    "lng": 127.084868035145
  },
  "극장 동국": {
    "name": "극장 동국",
    "address": "서울 종로구 명륜2가 13",
    "district": "종로구",
    "lat": 37.58451265576224,
    "lng": 127.00005660867298
  },
  "대학로 오마이갓 전용관": {
    "name": "대학로 오마이갓 전용관",
    "address": "서울 종로구 동숭동 128-5",
    "district": "종로구",
    "lat": 37.5813050407232,
    "lng": 127.004302074561
  },
  "업스테이지(UP STAGE)": {
    "name": "업스테이지(UP STAGE)",
    "address": "경기 용인시 수지구 상현동 1220",
    "district": "용인시",
    "lat": 37.30065715309666,
    "lng": 127.07116288302747
  },
  "대학로예술극장 소극장": {
    "name": "대학로예술극장 소극장",
    "address": "서울 종로구 동숭동 1-67",
    "district": "종로구",
    "lat": 37.5820871387794,
    "lng": 127.003179039931
  },
  "고개 소극장": {
    "name": "고개 소극장",
    "address": "경기 가평군 청평면 고성리 616-2",
    "district": "가평군",
    "lat": 37.7152343727416,
    "lng": 127.490431790049
  },
  "모베터블루스": {
    "name": "모베터블루스",
    "address": "서울 관악구 봉천동 1624-4",
    "district": "관악구",
    "lat": 37.4771491153611,
    "lng": 126.958124362849
  },
  "우리소극장": {
    "name": "우리소극장",
    "address": "서울 종로구 동숭동 192-8",
    "district": "종로구",
    "lat": 37.5792237109437,
    "lng": 127.005151024833
  },
  "미래아트홀": {
    "name": "미래아트홀",
    "address": "서울 종로구 혜화동 62-1",
    "district": "종로구",
    "lat": 37.5869453179142,
    "lng": 127.002117233268
  },
  "정극장": {
    "name": "정극장",
    "address": "서울 종로구 동숭동 1-92",
    "district": "종로구",
    "lat": 37.5810257449425,
    "lng": 127.003951101087
  },
  "대학로예술극장 대극장": {
    "name": "대학로예술극장 대극장",
    "address": "서울 종로구 동숭동 1-67",
    "district": "종로구",
    "lat": 37.5820078501166,
    "lng": 127.003224321981
  },
  "대학로 봄날아트홀 2관": {
    "name": "대학로 봄날아트홀 2관",
    "address": "서울 종로구 동숭길 39 지하 1층, 2층 봄날아트홀",
    "district": "종로구",
    "lat": 37.573,
    "lng": 126.9794
  },
  "성수소극장": {
    "name": "성수소극장",
    "address": "서울 성동구 성수동2가 225-10",
    "district": "성동구",
    "lat": 37.5366660895235,
    "lng": 127.058409956355
  },
  "아이들극장": {
    "name": "아이들극장",
    "address": "서울 종로구 혜화동 1-21",
    "district": "종로구",
    "lat": 37.59039432628729,
    "lng": 126.99845219709556
  },
  "세명대학교 민송아트홀 2관": {
    "name": "세명대학교 민송아트홀 2관",
    "address": "서울 종로구 혜화동 185",
    "district": "종로구",
    "lat": 37.5840261015232,
    "lng": 127.002056013621
  },
  "뜻밖의극장": {
    "name": "뜻밖의극장",
    "address": "서울 성북구 동선동1가 89",
    "district": "성북구",
    "lat": 37.5925012614127,
    "lng": 127.018157474027
  },
  "봄날아트홀 1관": {
    "name": "봄날아트홀 1관",
    "address": "서울 종로구 동숭길 39 지하 1층, 2층 봄날아트홀",
    "district": "종로구",
    "lat": 37.573,
    "lng": 126.9794
  },
  "씨어터쿰": {
    "name": "씨어터쿰",
    "address": "서울 종로구 명륜2가 8",
    "district": "종로구",
    "lat": 37.58442075361745,
    "lng": 126.9995516598612
  },
  "대학로 아트포레스트 2관": {
    "name": "대학로 아트포레스트 2관",
    "address": "서울 종로구 동숭동 1-66",
    "district": "종로구",
    "lat": 37.5824943902625,
    "lng": 127.003088485817
  },
  "두산아트센터 Space111": {
    "name": "두산아트센터 Space111",
    "address": "서울 종로구 연지동 269-2",
    "district": "종로구",
    "lat": 37.5716608710148,
    "lng": 127.000941806432
  },
  "삼일로 창고극장": {
    "name": "삼일로 창고극장",
    "address": "서울 중구 저동1가 20-2",
    "district": "중구",
    "lat": 37.5634539936501,
    "lng": 126.987984230554
  },
  "JUNG THEATRE": {
    "name": "JUNG THEATRE",
    "address": "명동난타극장, 명동길, 명동1가, 명동, 중구, 서울특별시, 04537, 대한민국",
    "district": "중구",
    "lat": 37.5635792,
    "lng": 126.9836608
  },
  "카페 글렌": {
    "name": "카페 글렌",
    "address": "서울 관악구 남현동 1058-6",
    "district": "관악구",
    "lat": 37.4760696152051,
    "lng": 126.977696795334
  },
  "영산아트홀": {
    "name": "영산아트홀",
    "address": "영산아트홀, 101, 여의공원로, 여의도동, 여의동, 영등포구, 서울특별시, 07241, 대한민국",
    "district": "영등포구",
    "lat": 37.5292755,
    "lng": 126.9249272
  },
  "세종문화회관 체임버홀": {
    "name": "세종문화회관 체임버홀",
    "address": "세종문화회관 체임버홀, 175, 세종대로, 중학동, 종로1·2·3·4가동, 종로구, 서울특별시, 03172, 대한민국",
    "district": "종로구",
    "lat": 37.5720623,
    "lng": 126.9756797
  },
  "세종대 컨벤션홀": {
    "name": "세종대 컨벤션홀",
    "address": "서울 광진구 능동로 209",
    "district": "광진구",
    "lat": 37.5385,
    "lng": 127.0824
  },
  "크레디아클래식클럽 STUDIO": {
    "name": "크레디아클래식클럽 STUDIO",
    "address": "서울 종로구 자하문로9길 8 B1",
    "district": "종로구",
    "lat": 37.573,
    "lng": 126.9794
  },
  "강북문화예술회관 강북소나무홀": {
    "name": "강북문화예술회관 강북소나무홀",
    "address": "서울 강북구 수유동 360-10",
    "district": "강북구",
    "lat": 37.640846251332,
    "lng": 127.013165783141
  },
  "페리지홀": {
    "name": "페리지홀",
    "address": "서울 서초구 서초동 1451-51",
    "district": "서초구",
    "lat": 37.4822375415116,
    "lng": 127.01273539882
  },
  "아르코예술극장 소극장": {
    "name": "아르코예술극장 소극장",
    "address": "서울 종로구 동숭동 1-111",
    "district": "종로구",
    "lat": 37.5812149819099,
    "lng": 127.002988806095
  },
  "갤러리 디아르테": {
    "name": "갤러리 디아르테",
    "address": "서울 강남구 청담동 70-16",
    "district": "강남구",
    "lat": 37.5205559525798,
    "lng": 127.055134996985
  },
  "라움아트센터": {
    "name": "라움아트센터",
    "address": "스포월드.라움아트센터, 언주로, 압구정동, 역삼1동, 강남구, 서울특별시, 06061, 대한민국",
    "district": "강남구",
    "lat": 37.5079882,
    "lng": 127.0388431
  },
  "로데아트센터 콘서트홀": {
    "name": "로데아트센터 콘서트홀",
    "address": "서울 서초구 서초동 1485-11",
    "district": "서초구",
    "lat": 37.48312256754484,
    "lng": 127.01032275948045
  },
  "반포심산아트홀": {
    "name": "반포심산아트홀",
    "address": "서울 서초구 반포동 114-3",
    "district": "서초구",
    "lat": 37.4990831670841,
    "lng": 126.991608852695
  },
  "스타인웨이 갤러리 서울": {
    "name": "스타인웨이 갤러리 서울",
    "address": "서울 서초구 서초동 1461-15",
    "district": "서초구",
    "lat": 37.4826494085014,
    "lng": 127.011711113734
  },
  "예술의전당 리사이틀홀": {
    "name": "예술의전당 리사이틀홀",
    "address": "서울 서초구 서초동 산 130-6",
    "district": "서초구",
    "lat": 37.4792319150666,
    "lng": 127.011364621935
  },
  "예술의전당 IBK기업은행챔버홀": {
    "name": "예술의전당 IBK기업은행챔버홀",
    "address": "서울 서초구 남부순환로 2406 예술의전당",
    "district": "서초구",
    "lat": 37.4837,
    "lng": 127.0324
  },
  "금호아트홀 연세": {
    "name": "금호아트홀 연세",
    "address": "금호아트홀 연세, 50, 연세로, 신촌동, 서대문구, 서울특별시, 03722, 대한민국",
    "district": "서대문구",
    "lat": 37.5629215,
    "lng": 126.9368224
  },
  "거암아트홀": {
    "name": "거암아트홀",
    "address": "서울 강남구 신사동 504-11",
    "district": "강남구",
    "lat": 37.5195094981008,
    "lng": 127.019108071308
  },
  "금나래아트홀(금천구청내)": {
    "name": "금나래아트홀(금천구청내)",
    "address": "금나래아트홀, 70, 시흥대로73길, 시흥1동, 금천구, 서울특별시, 08611, 대한민국",
    "district": "금천구",
    "lat": 37.4565729,
    "lng": 126.8960236
  },
  "푸르지오아트홀": {
    "name": "푸르지오아트홀",
    "address": "서울 중구 을지로4가 323",
    "district": "중구",
    "lat": 37.5661395435934,
    "lng": 126.997328727022
  },
  "JCC아트센터 콘서트홀": {
    "name": "JCC아트센터 콘서트홀",
    "address": "서울 종로구 창경궁로35길 29",
    "district": "종로구",
    "lat": 37.573,
    "lng": 126.9794
  },
  "예술의전당 인춘아트홀": {
    "name": "예술의전당 인춘아트홀",
    "address": "서울 서초구 서초동 700",
    "district": "서초구",
    "lat": 37.47935616646952,
    "lng": 127.01224423590375
  },
  "꿈의숲_콘서트홀": {
    "name": "꿈의숲_콘서트홀",
    "address": "서울 강북구 번동 90",
    "district": "강북구",
    "lat": 37.6214938171239,
    "lng": 127.038544673316
  },
  "일신홀": {
    "name": "일신홀",
    "address": "서울 용산구 한남동 714",
    "district": "용산구",
    "lat": 37.5372246144272,
    "lng": 127.005421947369
  },
  "삼익아트홀": {
    "name": "삼익아트홀",
    "address": "서울 강남구 논현동 58-3",
    "district": "강남구",
    "lat": 37.51398780378087,
    "lng": 127.0295332097756
  },
  "모차르트홀": {
    "name": "모차르트홀",
    "address": "모차르트홀, 명달로22길, 서초3동, 서초구, 서울특별시, 06670, 대한민국",
    "district": "서초구",
    "lat": 37.4863893,
    "lng": 127.0045485
  },
  "하이스트리트 이탈리아": {
    "name": "하이스트리트 이탈리아",
    "address": "서울 강남구 신사동 532-7",
    "district": "강남구",
    "lat": 37.5225543131502,
    "lng": 127.022380383862
  },
  "라율아트홀": {
    "name": "라율아트홀",
    "address": "서울 서초구 서초동 1451-38",
    "district": "서초구",
    "lat": 37.48242676621058,
    "lng": 127.01261558401937
  },
  "정동1928 아트센터": {
    "name": "정동1928 아트센터",
    "address": "정동1928 아트센터, 130, 덕수궁길, 정동, 소공동, 중구, 서울특별시, 04518, 대한민국",
    "district": "중구",
    "lat": 37.567864,
    "lng": 126.9737893
  },
  "콘서트홀 나누": {
    "name": "콘서트홀 나누",
    "address": "서울 마포구 망원동 415-26",
    "district": "마포구",
    "lat": 37.5570610153931,
    "lng": 126.904208014987
  },
  "여의도 KBS홀": {
    "name": "여의도 KBS홀",
    "address": "KBS홀, 여의서로1길, 여의도동, 여의동, 영등포구, 서울특별시, 07235, 대한민국",
    "district": "영등포구",
    "lat": 37.5259532,
    "lng": 126.9152896
  },
  "충무아트센터예그린스페이스": {
    "name": "충무아트센터예그린스페이스",
    "address": "서울 중구 퇴계로 387",
    "district": "중구",
    "lat": 37.5637,
    "lng": 126.9975
  },
  "JCC 아트센터 콘서트홀": {
    "name": "JCC 아트센터 콘서트홀",
    "address": "서울 종로구 창경궁로35길 29",
    "district": "종로구",
    "lat": 37.573,
    "lng": 126.9794
  },
  "명동대성당 내 파밀리아 채플": {
    "name": "명동대성당 내 파밀리아 채플",
    "address": "서울 중구 명동길 74",
    "district": "중구",
    "lat": 37.5637,
    "lng": 126.9975
  },
  "서울교육대학교 음악관 콘서트홀": {
    "name": "서울교육대학교 음악관 콘서트홀",
    "address": "서울 서초구 서초중앙로 96",
    "district": "서초구",
    "lat": 37.4837,
    "lng": 127.0324
  },
  "롤링홀 Rollinghall": {
    "name": "롤링홀 Rollinghall",
    "address": "서울 마포구 어울마당로 35",
    "district": "마포구",
    "lat": 37.5665,
    "lng": 126.9018
  },
  "서초문화예술회관 아트홀": {
    "name": "서초문화예술회관 아트홀",
    "address": "서울 용산구 이태원동 34-87",
    "district": "용산구",
    "lat": 37.532749063297786,
    "lng": 126.9902225231591
  },
  "신영체임버홀": {
    "name": "신영체임버홀",
    "address": "서울 영등포구 여의도동 34-8",
    "district": "영등포구",
    "lat": 37.5212663780187,
    "lng": 126.92882834906
  },
  "영산양재홀": {
    "name": "영산양재홀",
    "address": "영산양재홀 (Youngsan Yangjae Hall), 바우뫼로37길, 양재1동, 서초구, 서울특별시, 06744, 대한민국",
    "district": "서초구",
    "lat": 37.4805046,
    "lng": 127.0384453
  },
  "전통공연창작마루 광무대": {
    "name": "전통공연창작마루 광무대",
    "address": "서울 종로구 종로 272 신관 N동 8, 9층",
    "district": "종로구",
    "lat": 37.573,
    "lng": 126.9794
  },
  "마포아트센터 아트홀맥": {
    "name": "마포아트센터 아트홀맥",
    "address": "서울 마포구 대흥동 30-3",
    "district": "마포구",
    "lat": 37.54993450086795,
    "lng": 126.94560157555075
  },
  "광진어린이공연장": {
    "name": "광진어린이공연장",
    "address": "서울 광진구 중곡동 30-80",
    "district": "광진구",
    "lat": 37.56555516428025,
    "lng": 127.08458020983103
  },
  "국립국악원 풍류사랑방": {
    "name": "국립국악원 풍류사랑방",
    "address": "서울 서초구 서초동 산 150-124",
    "district": "서초구",
    "lat": 37.4775860020964,
    "lng": 127.008631813122
  },
  "김희수아트센터 SPACE1": {
    "name": "김희수아트센터 SPACE1",
    "address": "서울 동대문구 홍릉로 118 김희수아트센터",
    "district": "동대문구",
    "lat": 37.5744,
    "lng": 127.04
  },
  "국립국악원 우면당": {
    "name": "국립국악원 우면당",
    "address": "서울 서초구 서초동 산 150-127",
    "district": "서초구",
    "lat": 37.4783058394142,
    "lng": 127.009532959577
  },
  "서강대 메리홀 대극장": {
    "name": "서강대 메리홀 대극장",
    "address": "서울 마포구 신수동 1-1",
    "district": "마포구",
    "lat": 37.5521117863308,
    "lng": 126.939536435572
  },
  "강남씨어터극장": {
    "name": "강남씨어터극장",
    "address": "서울 강남구 역삼로7길 16 역삼1동복합문화센터 3층 강남씨어터",
    "district": "강남구",
    "lat": 37.5172,
    "lng": 127.0473
  },
  "삼청각 일화당": {
    "name": "삼청각 일화당",
    "address": "서울 성북구 성북동 330-115",
    "district": "성북구",
    "lat": 37.59735073472928,
    "lng": 126.98418081977508
  },
  "세종문화회관 S씨어터": {
    "name": "세종문화회관 S씨어터",
    "address": "서울 종로구 세종로 81-7",
    "district": "종로구",
    "lat": 37.5727754952377,
    "lng": 126.97515948536
  },
  "서울남산국악당 크라운해태홀": {
    "name": "서울남산국악당 크라운해태홀",
    "address": "서울 중구 퇴계로34길 28 서울남산국악당",
    "district": "중구",
    "lat": 37.5637,
    "lng": 126.9975
  },
  "논현동 문영빌딩": {
    "name": "논현동 문영빌딩",
    "address": "서울 강남구 논현동 86-7",
    "district": "강남구",
    "lat": 37.515020027622,
    "lng": 127.030811785275
  },
  "진연홀": {
    "name": "진연홀",
    "address": "서울 종로구 인사동 186",
    "district": "종로구",
    "lat": 37.5728655343894,
    "lng": 126.985653068571
  },
  "한국문화의집 KOUS": {
    "name": "한국문화의집 KOUS",
    "address": "서울 강남구 대치동 944-22",
    "district": "강남구",
    "lat": 37.50688506385562,
    "lng": 127.06056505070715
  },
  "서강대학교 메리홀 대극장": {
    "name": "서강대학교 메리홀 대극장",
    "address": "서울 마포구 신수동 1-1",
    "district": "마포구",
    "lat": 37.5521117863308,
    "lng": 126.939536435572
  },
  "이화여자대학교 ECC 삼성홀": {
    "name": "이화여자대학교 ECC 삼성홀",
    "address": "서울 서대문구 이화여대길 52 이화여자대학교 이화캠퍼스복합단지ECC 지하4층",
    "district": "서대문구",
    "lat": 37.5791,
    "lng": 126.9368
  },
  "DDP 뮤지엄 전시 2관": {
    "name": "DDP 뮤지엄 전시 2관",
    "address": "서울 중구 을지로 281 동대문디자인플라자뮤지엄",
    "district": "중구",
    "lat": 37.5637,
    "lng": 126.9975
  },
  "예술의전당 한가람디자인미술관": {
    "name": "예술의전당 한가람디자인미술관",
    "address": "한가람디자인미술관, 2406, 남부순환로, 서초3동, 서초구, 서울특별시, 06757, 대한민국",
    "district": "서초구",
    "lat": 37.4797997,
    "lng": 127.0126016
  },
  "대원뮤지엄 팝콘D스퀘어": {
    "name": "대원뮤지엄 팝콘D스퀘어",
    "address": "서울 용산구 한강대로23길 55 아이파크몰 테마파크 6층 1-1호",
    "district": "용산구",
    "lat": 37.5323,
    "lng": 126.9906
  },
  "충무아트센터 갤러리": {
    "name": "충무아트센터 갤러리",
    "address": "서울 중구 흥인동 131",
    "district": "중구",
    "lat": 37.5659440326415,
    "lng": 127.0147870419
  },
  "롯데뮤지엄": {
    "name": "롯데뮤지엄",
    "address": "서울 송파구 신천동 29",
    "district": "송파구",
    "lat": 37.5126405126229,
    "lng": 127.102562422407
  },
  "풋볼 팬타지움 (2002 FIFA 월드컵 기념관)": {
    "name": "풋볼 팬타지움 (2002 FIFA 월드컵 기념관)",
    "address": "풋볼 팬타지움, 240, 월드컵로, 성산동, 성산2동, 마포구, 서울특별시, 03932, 대한민국",
    "district": "마포구",
    "lat": 37.5684953,
    "lng": 126.896336
  },
  "K현대미술관": {
    "name": "K현대미술관",
    "address": "서울 강남구 신사동 666-7",
    "district": "강남구",
    "lat": 37.524349883168405,
    "lng": 127.03913323759338
  },
  "그라운드시소 이스트": {
    "name": "그라운드시소 이스트",
    "address": "서울 광진구 자양동 870",
    "district": "광진구",
    "lat": 37.53661001972641,
    "lng": 127.08784567948891
  },
  "세종문화회관 미술관": {
    "name": "세종문화회관 미술관",
    "address": "세종문화회관 미술관, 175, 세종대로, 중학동, 종로1·2·3·4가동, 종로구, 서울특별시, 03172, 대한민국",
    "district": "종로구",
    "lat": 37.5718067,
    "lng": 126.9761562
  },
  "동대문디자인플라자(DDP) 전시 1관": {
    "name": "동대문디자인플라자(DDP) 전시 1관",
    "address": "서울 중구 을지로 281 동대문디자인플라자뮤지엄",
    "district": "중구",
    "lat": 37.5637,
    "lng": 126.9975
  },
  "예술의전당 한가람미술관 제7전시실": {
    "name": "예술의전당 한가람미술관 제7전시실",
    "address": "서울 서초구 서초동 산 129-6",
    "district": "서초구",
    "lat": 37.47996250279157,
    "lng": 127.01265134873664
  },
  "빛의 시어터": {
    "name": "빛의 시어터",
    "address": "서울 광진구 광장동 22-1",
    "district": "광진구",
    "lat": 37.5550745618675,
    "lng": 127.110948931759
  },
  "뚝섬미술관": {
    "name": "뚝섬미술관",
    "address": "뚝섬미술관, 아차산로, 성수1가2동, 성동구, 서울특별시, 04793, 대한민국",
    "district": "성동구",
    "lat": 37.5471232,
    "lng": 127.0484409
  },
  "세화미술관": {
    "name": "세화미술관",
    "address": "서울 종로구 신문로1가 226",
    "district": "종로구",
    "lat": 37.56964296257807,
    "lng": 126.97214275152511
  },
  "그라운드시소 명동": {
    "name": "그라운드시소 명동",
    "address": "서울 중구 남대문로2가 130",
    "district": "중구",
    "lat": 37.56423888965341,
    "lng": 126.98192069531612
  },
  "그라운드시소 센트럴": {
    "name": "그라운드시소 센트럴",
    "address": "그라운드시소 센트럴, 14, 세종대로, 남대문로5가, 회현동, 중구, 서울특별시, 04527, 대한민국",
    "district": "중구",
    "lat": 37.5580064,
    "lng": 126.974399
  },
  "그라운드시소 서촌": {
    "name": "그라운드시소 서촌",
    "address": "서울 종로구 통의동 35-17",
    "district": "종로구",
    "lat": 37.5778385914657,
    "lng": 126.972916300185
  },
  "모다갤러리": {
    "name": "모다갤러리",
    "address": "서울 용산구 이태원동 34-158",
    "district": "용산구",
    "lat": 37.5306597163818,
    "lng": 126.991175400139
  },
  "노원문화예술회관 노원아트뮤지엄": {
    "name": "노원문화예술회관 노원아트뮤지엄",
    "address": "서울 노원구 중계동 364-3",
    "district": "노원구",
    "lat": 37.6502367624231,
    "lng": 127.080266989619
  },
  "디뮤지엄": {
    "name": "디뮤지엄",
    "address": "디뮤지엄, 독서당로29길, 한남동, 용산구, 서울특별시, 04419, 대한민국",
    "district": "용산구",
    "lat": 37.5371256,
    "lng": 127.011551
  },
  "전쟁기념관 특별전시실": {
    "name": "전쟁기념관 특별전시실",
    "address": "서울 용산구 이태원로 29",
    "district": "용산구",
    "lat": 37.5323,
    "lng": 126.9906
  },
  "롯데몰 김포공항점 1F 전시홀": {
    "name": "롯데몰 김포공항점 1F 전시홀",
    "address": "서울 강서구 하늘길 77",
    "district": "강서구",
    "lat": 37.5509,
    "lng": 126.8497
  },
  "후지시로 세이지 북촌스페이스": {
    "name": "후지시로 세이지 북촌스페이스",
    "address": "서울 종로구 계동 133-5",
    "district": "종로구",
    "lat": 37.5813692590123,
    "lng": 126.986857150953
  },
  "그라운드시소 한남": {
    "name": "그라운드시소 한남",
    "address": "서울 용산구 한남동 829",
    "district": "용산구",
    "lat": 37.5362578572881,
    "lng": 127.005051895341
  },
  "북촌 어둠속의대화": {
    "name": "북촌 어둠속의대화",
    "address": "서울 종로구 가회동 1-29",
    "district": "종로구",
    "lat": 37.5833349800145,
    "lng": 126.98480081078836
  },
  "아라리오뮤지엄 인 스페이스": {
    "name": "아라리오뮤지엄 인 스페이스",
    "address": "아라리오뮤지엄 인 스페이스, 83, 율곡로, 운니동, 종로1·2·3·4가동, 종로구, 서울특별시, 03058, 대한민국",
    "district": "종로구",
    "lat": 37.5776563,
    "lng": 126.9883124
  },
  "MUSEUM 209": {
    "name": "MUSEUM 209",
    "address": "Museum, Central Region, Singapore",
    "district": "",
    "lat": 1.2959466,
    "lng": 103.8474873
  },
  "예술의전당 서예박물관": {
    "name": "예술의전당 서예박물관",
    "address": "서울 서초구 서초동 산 130-27",
    "district": "서초구",
    "lat": 37.47833986691578,
    "lng": 127.01186193751934
  },
  "더현대 서울 ALT. 1": {
    "name": "더현대 서울 ALT. 1",
    "address": "서울 영등포구 여의도동 22",
    "district": "영등포구",
    "lat": 37.5260038891705,
    "lng": 126.928896250997
  },
  "더프리마아트센터": {
    "name": "더프리마아트센터",
    "address": "서울 종로구 관훈동 192-17",
    "district": "종로구",
    "lat": 37.5734213273902,
    "lng": 126.984690757257
  },
  "창경궁": {
    "name": "창경궁",
    "address": "창경궁, 185, 창경궁로, 연건동, 이화동, 종로구, 서울특별시, 03072, 대한민국",
    "district": "종로구",
    "lat": 37.5802456,
    "lng": 126.9948331
  },
  "덕수궁": {
    "name": "덕수궁",
    "address": "덕수궁, 99, 세종대로, 정동, 소공동, 중구, 서울특별시, 04519, 대한민국",
    "district": "중구",
    "lat": 37.5661668,
    "lng": 126.9751703
  },
  "여의도 벙커": {
    "name": "여의도 벙커",
    "address": "서울 영등포구 여의도동 45-1",
    "district": "영등포구",
    "lat": 37.519805354216,
    "lng": 126.928006226952
  },
  "마이아트뮤지엄 원그로브점": {
    "name": "마이아트뮤지엄 원그로브점",
    "address": "서울 강서구 마곡동 769",
    "district": "강서구",
    "lat": 37.5612857889565,
    "lng": 126.82428132653702
  },
  "코엑스 C홀": {
    "name": "코엑스 C홀",
    "address": "서울 강남구 삼성동 159",
    "district": "강남구",
    "lat": 37.511297100471545,
    "lng": 127.05914799602495
  },
  "마이아트뮤지엄": {
    "name": "마이아트뮤지엄",
    "address": "서울 강남구 대치동 944-31",
    "district": "강남구",
    "lat": 37.507587841577454,
    "lng": 127.06057692858644
  },
  "워커힐 호텔 포레스트 파크": {
    "name": "워커힐 호텔 포레스트 파크",
    "address": "서울 광진구 광장동 22-1",
    "district": "광진구",
    "lat": 37.55781913114262,
    "lng": 127.10984386746753
  },
  "갤러리 미셸": {
    "name": "갤러리 미셸",
    "address": "서울 강남구 역삼동 694-11",
    "district": "강남구",
    "lat": 37.5069093437063,
    "lng": 127.046789486618
  },
  "꿈의숲_상상톡톡미술관": {
    "name": "꿈의숲_상상톡톡미술관",
    "address": "서울 강북구 번동 90",
    "district": "강북구",
    "lat": 37.6225163748567,
    "lng": 127.041390667983
  },
  "코엑스 A홀": {
    "name": "코엑스 A홀",
    "address": "서울 강남구 삼성동 159",
    "district": "강남구",
    "lat": 37.511297100471545,
    "lng": 127.05914799602495
  },
  "경복궁": {
    "name": "경복궁",
    "address": "경복궁, 청운효자동, 종로구, 서울특별시, 03045, 대한민국",
    "district": "종로구",
    "lat": 37.579754,
    "lng": 126.9766818
  },
  "경희궁": {
    "name": "경희궁",
    "address": "경희궁, 사직동, 종로구, 서울특별시, 대한민국",
    "district": "종로구",
    "lat": 37.5709397,
    "lng": 126.9681024
  },
  "고궁박물관": {
    "name": "고궁박물관",
    "address": "故宮博物院, 221, 至善路二段, 臨溪里, 士林區, 臺北市, 111, 臺灣",
    "district": "",
    "lat": 25.0999276,
    "lng": 121.5493043
  },
  "국립중앙박물관": {
    "name": "국립중앙박물관",
    "address": "국립중앙박물관, 137, 서빙고로, 용산동5가, 서빙고동, 용산구, 서울특별시, 04388, 대한민국",
    "district": "용산구",
    "lat": 37.523953,
    "lng": 126.9803196
  },
  "연희정음": {
    "name": "연희정음",
    "address": "서울 서대문구 연희동 189-2",
    "district": "서대문구",
    "lat": 37.5667121481333,
    "lng": 126.92927864311
  },
  "낙산공원": {
    "name": "낙산공원",
    "address": "낙산공원, 41, 이화동, 종로구, 서울특별시, 대한민국",
    "district": "종로구",
    "lat": 37.5805339,
    "lng": 127.0076085
  },
  "한국민화학교": {
    "name": "한국민화학교",
    "address": "서울 강남구 삼성로96길 6 1210호",
    "district": "강남구",
    "lat": 37.5172,
    "lng": 127.0473
  },
  "블루스퀘어": {
    "name": "블루스퀘어",
    "address": "블루스퀘어, 삼일대로, 한남동, 용산구, 서울특별시, 04417, 대한민국",
    "district": "용산구",
    "lat": 37.5409037,
    "lng": 127.0025813
  },
  "서울역사박물관": {
    "name": "서울역사박물관",
    "address": "서울역사박물관, 55, 새문안로, 신문로2가, 사직동, 종로구, 서울특별시, 03177, 대한민국",
    "district": "종로구",
    "lat": 37.5704789,
    "lng": 126.9705257
  },
  "선릉": {
    "name": "선릉",
    "address": "선릉, 340, 테헤란로, 역삼1동, 강남구, 서울특별시, 06151, 대한민국",
    "district": "강남구",
    "lat": 37.5051756,
    "lng": 127.0487082
  },
  "창덕궁 돈화문": {
    "name": "창덕궁 돈화문",
    "address": "창덕궁, 돈화문로, 종로3가, 종로1·2·3·4가동, 종로구, 서울특별시, 03134, 대한민국",
    "district": "종로구",
    "lat": 37.5764511,
    "lng": 126.9904225
  },
  "JCC크리에이티브센터 스튜디오": {
    "name": "JCC크리에이티브센터 스튜디오",
    "address": "서울 종로구 창경궁로35길 45",
    "district": "종로구",
    "lat": 37.573,
    "lng": 126.9794
  },
  "서촌 일대": {
    "name": "서촌 일대",
    "address": "서울 중구 태평로1가 31",
    "district": "중구",
    "lat": 37.5668007776021,
    "lng": 126.978656793129
  },
  "덕수궁 돌담길": {
    "name": "덕수궁 돌담길",
    "address": "서울 중구 정동 5-1",
    "district": "중구",
    "lat": 37.564976582796,
    "lng": 126.975664628917
  },
  "코엑스 3층 C홀": {
    "name": "코엑스 3층 C홀",
    "address": "서울 강남구 삼성동 159",
    "district": "강남구",
    "lat": 37.511297100471545,
    "lng": 127.05914799602495
  },
  "토탈미술관": {
    "name": "토탈미술관",
    "address": "토탈미술관, 평창32길, 평창동, 종로구, 서울특별시, 03009, 대한민국",
    "district": "종로구",
    "lat": 37.6121455,
    "lng": 126.9757256
  },
  "현대카드 Storage": {
    "name": "현대카드 Storage",
    "address": "현대카드 스토리지, 이태원로42길, 한남동, 용산구, 서울특별시, 04400, 대한민국",
    "district": "용산구",
    "lat": 37.5368341,
    "lng": 127.0009561
  },
  "빚다 도예공방 강동점": {
    "name": "빚다 도예공방 강동점",
    "address": "서울 강동구 길동 78",
    "district": "강동구",
    "lat": 37.542146204427226,
    "lng": 127.1471625491675
  },
  "［경복궁］ 해와달 한복": {
    "name": "［경복궁］ 해와달 한복",
    "address": "서울 종로구 사직로 127-14 다자연빌딩 3층 해와달한복",
    "district": "종로구",
    "lat": 37.573,
    "lng": 126.9794
  },
  "궁궐사랑": {
    "name": "궁궐사랑",
    "address": "서울특별시 서초구 명달로 97-9",
    "district": "서초구",
    "lat": 37.4837,
    "lng": 127.0324
  },
  "쥬라리움 금천": {
    "name": "쥬라리움 금천",
    "address": "서울 금천구 독산동 295-10",
    "district": "금천구",
    "lat": 37.4706575260821,
    "lng": 126.895763111781
  },
  "N 서울타워": {
    "name": "N 서울타워",
    "address": "서울 용산구 용산동2가 산 1-3",
    "district": "용산구",
    "lat": 37.5513049702718,
    "lng": 126.988230622132
  },
  "N서울타워": {
    "name": "N서울타워",
    "address": "N서울타워 기프트샵, 서울한양도성 3코스 남산구간, 예장동, 필동, 중구, 서울특별시, 04340, 대한민국",
    "district": "중구",
    "lat": 37.55127,
    "lng": 126.9882805
  },
  "반지만들기카페 건대지점": {
    "name": "반지만들기카페 건대지점",
    "address": "서울 광진구 자양동 7-13",
    "district": "광진구",
    "lat": 37.5400628277979,
    "lng": 127.068528223458
  },
  "클럽롤러힐": {
    "name": "클럽롤러힐",
    "address": "서울 동대문구 답십리동 2-9",
    "district": "동대문구",
    "lat": 37.5733194760319,
    "lng": 127.063817853438
  },
  "홍대반지": {
    "name": "홍대반지",
    "address": "서울 마포구 서교동 366-13",
    "district": "마포구",
    "lat": 37.55212626567029,
    "lng": 126.92129708652944
  },
  "목동 종합사격장": {
    "name": "목동 종합사격장",
    "address": "서울 양천구 목동 914",
    "district": "양천구",
    "lat": 37.530746020650696,
    "lng": 126.88007583510853
  },
  "서래마을 휴리재": {
    "name": "서래마을 휴리재",
    "address": "서울 서초구 방배동 768-12",
    "district": "서초구",
    "lat": 37.494738869088664,
    "lng": 126.98588514375392
  },
  "리얼샷사격양궁장": {
    "name": "리얼샷사격양궁장",
    "address": "서울 마포구 서교동 364-17",
    "district": "마포구",
    "lat": 37.5515282149621,
    "lng": 126.92161571581
  },
  "방탈출카페 탈출브라더스": {
    "name": "방탈출카페 탈출브라더스",
    "address": "서울 영등포구 영중로4길 25-1 4층",
    "district": "영등포구",
    "lat": 37.5264,
    "lng": 126.8962
  },
  "한강요트클럽 세일링파라다이스": {
    "name": "한강요트클럽 세일링파라다이스",
    "address": "서울 영등포구 여의도동 86",
    "district": "영등포구",
    "lat": 37.5228375116719,
    "lng": 126.941574807432
  },
  "볼베어파크 은평점": {
    "name": "볼베어파크 은평점",
    "address": "볼베어파크 은평점, 1050, 통일로, 진관동, 은평구, 서울특별시, 03312, 대한민국",
    "district": "은평구",
    "lat": 37.6381563,
    "lng": 126.9180204
  },
  "방탈출미로": {
    "name": "방탈출미로",
    "address": "서울 은평구 갈현동 400-7",
    "district": "은평구",
    "lat": 37.6192591720085,
    "lng": 126.918543009124
  },
  "［종로］리얼샷": {
    "name": "［종로］리얼샷",
    "address": "서울 종로구 관철동 18-1",
    "district": "종로구",
    "lat": 37.5696597893519,
    "lng": 126.985619725035
  },
  "리얼샷 사격양궁장 혜화점": {
    "name": "리얼샷 사격양궁장 혜화점",
    "address": "서울 종로구 동숭동 1-55",
    "district": "종로구",
    "lat": 37.5827106455245,
    "lng": 127.002359392618
  },
  "비밀의 숲 홍대점": {
    "name": "비밀의 숲 홍대점",
    "address": "서울 마포구 서교동 366-8",
    "district": "마포구",
    "lat": 37.5522160605285,
    "lng": 126.920840923273
  },
  "씨라이프 코엑스아쿠아리움": {
    "name": "씨라이프 코엑스아쿠아리움",
    "address": "서울 강남구 삼성동 159",
    "district": "강남구",
    "lat": 37.513409385014874,
    "lng": 127.05848344600409
  },
  "코엑스 아쿠아리움": {
    "name": "코엑스 아쿠아리움",
    "address": "코엑스 아쿠아리움 (COEX Aquarium), 513, 영동대로, 삼성동, 삼성1동, 강남구, 서울특별시, 06164, 대한민국",
    "district": "강남구",
    "lat": 37.5131846,
    "lng": 127.0586092
  },
  "삼성 코엑스아쿠아리움": {
    "name": "삼성 코엑스아쿠아리움",
    "address": "코엑스 아쿠아리움 (COEX Aquarium), 513, 영동대로, 삼성동, 삼성1동, 강남구, 서울특별시, 06164, 대한민국",
    "district": "강남구",
    "lat": 37.5131846,
    "lng": 127.0586092
  },
  "양재스포타임": {
    "name": "양재스포타임",
    "address": "서울 서초구 양재동 24-4",
    "district": "서초구",
    "lat": 37.482798926833,
    "lng": 127.034832661298
  },
  "루프캣미 명동점": {
    "name": "루프캣미 명동점",
    "address": "서울 중구 충무로2가 11-1",
    "district": "중구",
    "lat": 37.5620005331664,
    "lng": 126.986564013943
  },
  "루프캣미 홍대점": {
    "name": "루프캣미 홍대점",
    "address": "서울 마포구 동교동 162-15",
    "district": "마포구",
    "lat": 37.5551019080658,
    "lng": 126.922123513945
  },
  "프린세스요트코리아": {
    "name": "프린세스요트코리아",
    "address": "서울 광진구 자양동 680-68",
    "district": "광진구",
    "lat": 37.5353060722992,
    "lng": 127.084413657781
  },
  "제니스 스포츠클럽 아이스링크": {
    "name": "제니스 스포츠클럽 아이스링크",
    "address": "서울 구로구 고척동 60-34",
    "district": "구로구",
    "lat": 37.5047173323002,
    "lng": 126.870210214045
  },
  "주렁주렁 영등포 타임스퀘어점": {
    "name": "주렁주렁 영등포 타임스퀘어점",
    "address": "서울 영등포구 영등포동4가 442",
    "district": "영등포구",
    "lat": 37.51711057944,
    "lng": 126.90299334402
  },
  "서울중구투어패스": {
    "name": "서울중구투어패스",
    "address": "서울 중구 예관동 120-1",
    "district": "중구",
    "lat": 37.5638257911702,
    "lng": 126.997598192396
  },
  "［성북］ 빚다 도예공방 도자기만들기 / 물레체험 /": {
    "name": "［성북］ 빚다 도예공방 도자기만들기 / 물레체험 /",
    "address": "서울 성북구 도봉로3길 9-3",
    "district": "성북구",
    "lat": 37.5891,
    "lng": 127.0182
  },
  "이랜드크루즈": {
    "name": "이랜드크루즈",
    "address": "이랜드크루즈 잠실선착장, 한강남자전거길, 잠실동, 잠실2동, 송파구, 서울특별시, 05500, 대한민국",
    "district": "송파구",
    "lat": 37.5186983,
    "lng": 127.0819547
  },
  "이랜드 크루즈": {
    "name": "이랜드 크루즈",
    "address": "서울 영등포구 여의도동 85-1",
    "district": "영등포구",
    "lat": 37.52567949378868,
    "lng": 126.93846156126689
  },
  "［연남］ K탑건 사격양궁장": {
    "name": "［연남］ K탑건 사격양궁장",
    "address": "서울 마포구 양화로21길 29 지층",
    "district": "마포구",
    "lat": 37.5665,
    "lng": 126.9018
  },
  "그아저씨 도예공방 원데이 클래스": {
    "name": "그아저씨 도예공방 원데이 클래스",
    "address": "서울 성동구 무학봉15길 27",
    "district": "성동구",
    "lat": 37.5633,
    "lng": 127.0371
  },
  "크라운 해태 키즈뮤지엄": {
    "name": "크라운 해태 키즈뮤지엄",
    "address": "서울 용산구 남영동 131-1",
    "district": "용산구",
    "lat": 37.540836636726,
    "lng": 126.973762483462
  },
  "주식회사 리얼샷 익선점": {
    "name": "주식회사 리얼샷 익선점",
    "address": "서울 종로구 수표로28길 17-5 1층",
    "district": "종로구",
    "lat": 37.573,
    "lng": 126.9794
  },
  "플레이타임 중앙": {
    "name": "플레이타임 중앙",
    "address": "서울 강남구 수서동 717-3",
    "district": "강남구",
    "lat": 37.488938824901,
    "lng": 127.104429633155
  },
  "블루마린 스쿠버 다이브": {
    "name": "블루마린 스쿠버 다이브",
    "address": "강원특별자치도 양양군 현남면 남애리 1-2",
    "district": "양양군",
    "lat": 37.9452432996917,
    "lng": 128.785831591461
  },
  "경복궁 한복남": {
    "name": "경복궁 한복남",
    "address": "서울 종로구 적선동 95-1",
    "district": "종로구",
    "lat": 37.57620788084097,
    "lng": 126.97330744725905
  },
  "종로 한복남": {
    "name": "종로 한복남",
    "address": "서울 종로구 적선동 95-1",
    "district": "종로구",
    "lat": 37.57620788084097,
    "lng": 126.97330744725905
  },
  "한복남 북촌한옥마을점": {
    "name": "한복남 북촌한옥마을점",
    "address": "서울 종로구 가회동 159",
    "district": "종로구",
    "lat": 37.5798535414227,
    "lng": 126.984807179041
  },
  "키자니아 서울": {
    "name": "키자니아 서울",
    "address": "키자니아(서울), 송파대로, 잠실3동, 송파구, 서울특별시, 05510, 대한민국",
    "district": "송파구",
    "lat": 37.5109369,
    "lng": 127.0964062
  },
  "케이탑건 홍대점": {
    "name": "케이탑건 홍대점",
    "address": "서울 마포구 서교동 346-1",
    "district": "마포구",
    "lat": 37.5557105836986,
    "lng": 126.92428110357646
  },
  "월드컵공원 노을캠핑장": {
    "name": "월드컵공원 노을캠핑장",
    "address": "서울 마포구 상암동 478-1",
    "district": "마포구",
    "lat": 37.57340157624325,
    "lng": 126.87366824270977
  },
  "월드컵공원": {
    "name": "월드컵공원",
    "address": "월드컵공원, 상암동, 마포구, 서울특별시, 대한민국",
    "district": "마포구",
    "lat": 37.5735977,
    "lng": 126.8703674
  },
  "가산 아쿠아밸리": {
    "name": "가산 아쿠아밸리",
    "address": "서울 금천구 가산동 60-26",
    "district": "금천구",
    "lat": 37.4764396758109,
    "lng": 126.887331423733
  },
  "롯데월드 아이스링크": {
    "name": "롯데월드 아이스링크",
    "address": "롯데월드 아이스링크, 매직아일랜드 연결다리, 잠실3동, 송파구, 서울특별시, 05554, 대한민국",
    "district": "송파구",
    "lat": 37.5112951,
    "lng": 127.0986709
  },
  "롯데월드 아쿠아리움": {
    "name": "롯데월드 아쿠아리움",
    "address": "롯데월드 아쿠아리움, 잠실로, 신천동, 잠실6동, 송파구, 서울특별시, 05552, 대한민국",
    "district": "송파구",
    "lat": 37.5136468,
    "lng": 127.1051485
  },
  "롯데월드 어드벤처 잠실": {
    "name": "롯데월드 어드벤처 잠실",
    "address": "롯데월드 어드벤처, 매직아일랜드 연결다리, 잠실3동, 송파구, 서울특별시, 05554, 대한민국",
    "district": "송파구",
    "lat": 37.5110774,
    "lng": 127.0981905
  },
  "롯데월드 어드벤처": {
    "name": "롯데월드 어드벤처",
    "address": "롯데월드 어드벤처, 매직아일랜드 연결다리, 잠실3동, 송파구, 서울특별시, 05554, 대한민국",
    "district": "송파구",
    "lat": 37.5110774,
    "lng": 127.0981905
  },
  "서울스카이": {
    "name": "서울스카이",
    "address": "서울스카이, 300, 올림픽로, 신천동, 잠실6동, 송파구, 서울특별시, 05551, 대한민국",
    "district": "송파구",
    "lat": 37.5125366,
    "lng": 127.1026546
  },
  "천왕산가족캠핑장": {
    "name": "천왕산가족캠핑장",
    "address": "서울 구로구 항동 산 39-4",
    "district": "구로구",
    "lat": 37.47899323006236,
    "lng": 126.83139447182263
  },
  "파크하비오 워터킹덤": {
    "name": "파크하비오 워터킹덤",
    "address": "서울 송파구 문정동 618",
    "district": "송파구",
    "lat": 37.480209937378454,
    "lng": 127.12478406415195
  },
  "퓨처그라운드 롯데몰 김포공항점": {
    "name": "퓨처그라운드 롯데몰 김포공항점",
    "address": "서울 강서구 방화동 882-1",
    "district": "강서구",
    "lat": 37.56395452303145,
    "lng": 126.80314435068914
  },
  "고양어울림누리 어울림극장": {
    "name": "고양어울림누리 어울림극장",
    "address": "경기 고양시 덕양구 성사동 777",
    "district": "고양시",
    "lat": 37.6502205371056,
    "lng": 126.835486406393
  },
  "부천시민회관 대공연장": {
    "name": "부천시민회관 대공연장",
    "address": "경기 부천시 원미구 중동 788",
    "district": "부천시",
    "lat": 37.4884014589488,
    "lng": 126.770391362396
  },
  "수원문화원 빛누리아트홀": {
    "name": "수원문화원 빛누리아트홀",
    "address": "경기 수원시 권선구 호매실동 1366",
    "district": "수원시",
    "lat": 37.265377006891974,
    "lng": 126.956935278737
  },
  "안산문화예술의전당 해돋이극장": {
    "name": "안산문화예술의전당 해돋이극장",
    "address": "경기 안산시 단원구 고잔동 817",
    "district": "안산시",
    "lat": 37.3200554820814,
    "lng": 126.82306759376
  },
  "안성맞춤아트홀 대공연장": {
    "name": "안성맞춤아트홀 대공연장",
    "address": "경기 안성시 발화대길 21 안성맞춤아트홀",
    "district": ""
  },
  "오산문화예술회관 대공연장": {
    "name": "오산문화예술회관 대공연장",
    "address": "경기 오산시 오산동 34-5",
    "district": "오산시",
    "lat": 37.1595171490519,
    "lng": 127.07689693335
  },
  "용인시문예회관 처인홀": {
    "name": "용인시문예회관 처인홀",
    "address": "경기 용인시 처인구 김량장동 346",
    "district": "용인시",
    "lat": 37.23178996207017,
    "lng": 127.19890287366283
  },
  "용인시 평생학습관 큰어울마당": {
    "name": "용인시 평생학습관 큰어울마당",
    "address": "경기 용인시 수지구 풍덕천동 1086",
    "district": "용인시",
    "lat": 37.3207907429824,
    "lng": 127.095518374808
  },
  "남동소래아트홀 대공연장": {
    "name": "남동소래아트홀 대공연장",
    "address": "인천 남동구 논현동 767-4",
    "district": "남동구",
    "lat": 37.3874335791849,
    "lng": 126.724677937094
  },
  "인천문화예술회관 소공연장": {
    "name": "인천문화예술회관 소공연장",
    "address": "인천 남동구 구월동 1408",
    "district": "남동구",
    "lat": 37.447174922188,
    "lng": 126.699673872945
  },
  "한국항공대학교 투데이아트홀": {
    "name": "한국항공대학교 투데이아트홀",
    "address": "경기 고양시 덕양구 항공대학로 76",
    "district": "덕양구"
  },
  "평택 북부문화예술회관 대공연장": {
    "name": "평택 북부문화예술회관 대공연장",
    "address": "경기 평택시 경기대로 1366 북부문화예술회관",
    "district": ""
  },
  "평택서부문화예술회관 대공연장": {
    "name": "평택서부문화예술회관 대공연장",
    "address": "경기 평택시 안중읍 학현리 572",
    "district": "평택시",
    "lat": 36.9901427155486,
    "lng": 126.920133150766
  },
  "장안구민회관 한누리아트홀": {
    "name": "장안구민회관 한누리아트홀",
    "address": "경기 수원시 장안구 조원동 888",
    "district": "수원시",
    "lat": 37.303053257941805,
    "lng": 127.0099856566231
  },
  "고양어울림누리 별모래극장": {
    "name": "고양어울림누리 별모래극장",
    "address": "경기 고양시 덕양구 성사동 777",
    "district": "고양시",
    "lat": 37.6505727518704,
    "lng": 126.834792126726
  },
  "용인문화예술원 마루홀": {
    "name": "용인문화예술원 마루홀",
    "address": "경기 용인시 처인구 삼가동 556",
    "district": "용인시",
    "lat": 37.2405768583031,
    "lng": 127.17920784365
  },
  "성남아트센터 앙상블시어터": {
    "name": "성남아트센터 앙상블시어터",
    "address": "성남아트센터 앙상블시어터, 태원지하보도, 이매동, 판교, 분당구, 성남시, 13566, 대한민국",
    "district": "분당구",
    "lat": 37.4023667,
    "lng": 127.1306777
  },
  "청라블루노바홀": {
    "name": "청라블루노바홀",
    "address": "인천 서구 청라동 106-2",
    "district": "서구",
    "lat": 37.5240117200914,
    "lng": 126.634174254626
  },
  "인천서구문화회관 대공연장": {
    "name": "인천서구문화회관 대공연장",
    "address": "인천 서구 가정동 430-21",
    "district": "서구",
    "lat": 37.5159779965578,
    "lng": 126.679956452191
  },
  "인천 중구문화회관": {
    "name": "인천 중구문화회관",
    "address": "중구문화회관, 축항대로296번길, 신흥동, 중구, 인천광역시, 22341, 대한민국",
    "district": "중구",
    "lat": 37.4406649,
    "lng": 126.6285087
  },
  "구리아트홀 유채꽃소극장": {
    "name": "구리아트홀 유채꽃소극장",
    "address": "경기 구리시 교문동 390",
    "district": "구리시",
    "lat": 37.5955414018126,
    "lng": 127.129897547841
  },
  "인천서구문화회관 소공연장": {
    "name": "인천서구문화회관 소공연장",
    "address": "인천 서구 가정동 430-21",
    "district": "서구",
    "lat": 37.5159492997357,
    "lng": 126.680006344561
  },
  "부평아트센터 달누리 극장": {
    "name": "부평아트센터 달누리 극장",
    "address": "인천 부평구 십정동 186-22",
    "district": "부평구",
    "lat": 37.4821005123324,
    "lng": 126.704961125576
  },
  "롯데백화점 평촌점 (2F 문화홀)": {
    "name": "롯데백화점 평촌점 (2F 문화홀)",
    "address": "경기 안양시 동안구 호계동 1039",
    "district": "안양시",
    "lat": 37.39022151853505,
    "lng": 126.95046566549613
  },
  "과천시민회관 대극장": {
    "name": "과천시민회관 대극장",
    "address": "과천시민회관 대극장, 5, 통영로, 중앙동, 과천시, 13807, 대한민국",
    "district": "과천시",
    "lat": 37.4284493,
    "lng": 126.9890655
  },
  "한국잡월드 나래울극장": {
    "name": "한국잡월드 나래울극장",
    "address": "경기 성남시 분당구 정자동 4-6",
    "district": "성남시",
    "lat": 37.3784834384883,
    "lng": 127.106286030845
  },
  "인천문화예술회관 대공연장": {
    "name": "인천문화예술회관 대공연장",
    "address": "인천 남동구 구월동 1408",
    "district": "남동구",
    "lat": 37.4478175602933,
    "lng": 126.700114305597
  },
  "평택남부문화예술회관 대공연장": {
    "name": "평택남부문화예술회관 대공연장",
    "address": "경기 평택시 비전동 847",
    "district": "평택시",
    "lat": 36.9911311852604,
    "lng": 127.114084126718
  },
  "남동소래아트홀 소래극장(대공연장)": {
    "name": "남동소래아트홀 소래극장(대공연장)",
    "address": "인천 남동구 논현동 767-4",
    "district": "남동구",
    "lat": 37.3874335791849,
    "lng": 126.724677937094
  },
  "광명문화예술교육지원센터 광명극장": {
    "name": "광명문화예술교육지원센터 광명극장",
    "address": "경기 광명시 하안동 718-2",
    "district": "광명시",
    "lat": 37.4667611314483,
    "lng": 126.869891526022
  },
  "용인어린이상상의숲 공연놀이터": {
    "name": "용인어린이상상의숲 공연놀이터",
    "address": "경기 용인시 처인구 동백죽전대로 61 용인어린이상상의숲",
    "district": "처인구"
  },
  "성남아트리움 대극장": {
    "name": "성남아트리움 대극장",
    "address": "경기 성남시 수정구 태평동 3309",
    "district": "성남시",
    "lat": 37.44476606199701,
    "lng": 127.13921033075111
  },
  "여주시여성회관": {
    "name": "여주시여성회관",
    "address": "경기 여주시 천송동 561-5",
    "district": "여주시",
    "lat": 37.3007389412512,
    "lng": 127.651305481858
  },
  "구리아트홀 코스모스 대극장": {
    "name": "구리아트홀 코스모스 대극장",
    "address": "경기 구리시 교문동 390",
    "district": "구리시",
    "lat": 37.5953506560501,
    "lng": 127.129657160848
  },
  "안양아트센터 관악홀": {
    "name": "안양아트센터 관악홀",
    "address": "경기 안양시 만안구 안양동 550",
    "district": "안양시",
    "lat": 37.38460941042,
    "lng": 126.931360569826
  },
  "과천시민회관 소극장": {
    "name": "과천시민회관 소극장",
    "address": "경기 과천시 중앙동 6-2",
    "district": "과천시",
    "lat": 37.4280255872183,
    "lng": 126.989221587124
  },
  "의정부예술의전당 대극장": {
    "name": "의정부예술의전당 대극장",
    "address": "경기 의정부시 의정부동 323",
    "district": "의정부시",
    "lat": 37.7335300891832,
    "lng": 127.034178367299
  },
  "부평아트센터 해누리 극장": {
    "name": "부평아트센터 해누리 극장",
    "address": "인천 부평구 십정동 186-22",
    "district": "부평구",
    "lat": 37.482087206347856,
    "lng": 126.7046841754447
  },
  "이천아트홀 소공연장": {
    "name": "이천아트홀 소공연장",
    "address": "경기 이천시 중리동 490",
    "district": "이천시",
    "lat": 37.2718917474538,
    "lng": 127.434383580731
  },
  "한국만화박물관 1층 만화영화상영관": {
    "name": "한국만화박물관 1층 만화영화상영관",
    "address": "경기 부천시 원미구 길주로 1",
    "district": "원미구"
  },
  "경기아트센터 소극장": {
    "name": "경기아트센터 소극장",
    "address": "경기 수원시 팔달구 인계동 1117",
    "district": "수원시",
    "lat": 37.2615606256318,
    "lng": 127.036403461334
  },
  "포천반월아트홀 대극장": {
    "name": "포천반월아트홀 대극장",
    "address": "경기 포천시 군내면 하성북리 610",
    "district": "포천시",
    "lat": 37.8961574176572,
    "lng": 127.212346555247
  },
  "군포문화예술회관 철쭉홀": {
    "name": "군포문화예술회관 철쭉홀",
    "address": "경기 군포시 산본동 1101",
    "district": "군포시",
    "lat": 37.365768472386,
    "lng": 126.927494394706
  },
  "파주 운정행복센터": {
    "name": "파주 운정행복센터",
    "address": "운정행복센터, 미래로, 운정1동, 파주시, 10894, 대한민국",
    "district": "파주시",
    "lat": 37.7240733,
    "lng": 126.7514812
  },
  "용인포은아트홀": {
    "name": "용인포은아트홀",
    "address": "용인포은아트홀, 포은대로, 신봉동, 수지구, 용인시, 경기도, 16870, 대한민국",
    "district": "수지구",
    "lat": 37.3245829,
    "lng": 127.1046591
  },
  "이천아트홀 대공연장": {
    "name": "이천아트홀 대공연장",
    "address": "경기 이천시 중리동 490",
    "district": "이천시",
    "lat": 37.2718449774093,
    "lng": 127.434360762708
  },
  "고양아람누리 아람극장": {
    "name": "고양아람누리 아람극장",
    "address": "경기 고양시 일산동구 마두동 816",
    "district": "고양시",
    "lat": 37.661466499200465,
    "lng": 126.77440859641214
  },
  "평택아트센터": {
    "name": "평택아트센터",
    "address": "경기 평택시 고덕동 2688",
    "district": "평택시",
    "lat": 37.039462814522736,
    "lng": 127.0339681658489
  },
  "경기아트센터 대극장": {
    "name": "경기아트센터 대극장",
    "address": "경기 수원시 팔달구 인계동 1117",
    "district": "수원시",
    "lat": 37.2615818857951,
    "lng": 127.037571376779
  },
  "광주시문화예술의전당 남한산성홀 (구.남한산성아트홀": {
    "name": "광주시문화예술의전당 남한산성홀 (구.남한산성아트홀",
    "address": "경기 광주시 회안대로 891 광주시문화재단 광주시문화예술의전당",
    "district": ""
  },
  "디아나아트홀": {
    "name": "디아나아트홀",
    "address": "경기 용인시 처인구 남사읍 봉명리 585",
    "district": "용인시",
    "lat": 37.1155207567955,
    "lng": 127.11963070394
  },
  "화성아트홀": {
    "name": "화성아트홀",
    "address": "경기 화성시 병점동 734",
    "district": "화성시",
    "lat": 37.2029358396979,
    "lng": 127.033225735988
  },
  "성남아트센터 오페라하우스": {
    "name": "성남아트센터 오페라하우스",
    "address": "성남아트센터 오페라하우스, 태원지하보도, 이매동, 판교, 분당구, 성남시, 13566, 대한민국",
    "district": "분당구",
    "lat": 37.4028964,
    "lng": 127.1305335
  },
  "국립과천과학관 어울림홀": {
    "name": "국립과천과학관 어울림홀",
    "address": "경기 과천시 과천동 758",
    "district": "과천시",
    "lat": 37.4387623967998,
    "lng": 127.006739165317
  },
  "KBS수원아트홀": {
    "name": "KBS수원아트홀",
    "address": "경기 수원시 팔달구 인계동 616-2",
    "district": "수원시",
    "lat": 37.26779363785306,
    "lng": 127.03150220972648
  },
  "비상교육 대강당": {
    "name": "비상교육 대강당",
    "address": "경기 과천시 과천대로2길 54 그라운드브이",
    "district": ""
  },
  "신한대학교 벧엘관": {
    "name": "신한대학교 벧엘관",
    "address": "경기 의정부시 호원동 117-1",
    "district": "의정부시",
    "lat": 37.7102087946,
    "lng": 127.046297804947
  },
  "복사골문화센터 아트홀": {
    "name": "복사골문화센터 아트홀",
    "address": "경기 부천시 원미구 상동 394-2",
    "district": "부천시",
    "lat": 37.4949428624938,
    "lng": 126.754318253636
  },
  "안산문화예술의전당 달맞이극장": {
    "name": "안산문화예술의전당 달맞이극장",
    "address": "경기 안산시 단원구 고잔동 817",
    "district": "안산시",
    "lat": 37.3206321812948,
    "lng": 126.823093318687
  },
  "광명시민회관 대공연장": {
    "name": "광명시민회관 대공연장",
    "address": "경기 광명시 철산동 222-1",
    "district": "광명시",
    "lat": 37.4770779854164,
    "lng": 126.863755106053
  },
  "남양주 어린이비전센터": {
    "name": "남양주 어린이비전센터",
    "address": "남양주 어린이비전센터, 해밀예당2로, 진접읍, 남양주시, 12057, 대한민국",
    "district": "남양주시",
    "lat": 37.7174744,
    "lng": 127.1963875
  },
  "성남소극장": {
    "name": "성남소극장",
    "address": "경기 성남시 수정구 태평동 7338",
    "district": "성남시",
    "lat": 37.444323395214894,
    "lng": 127.14246068398562
  },
  "광주시문화예술의전당 맹사성홀": {
    "name": "광주시문화예술의전당 맹사성홀",
    "address": "경기 광주시 회안대로 891 광주시문화재단 광주시문화예술의전당",
    "district": ""
  },
  "모두누림센터 누림아트홀": {
    "name": "모두누림센터 누림아트홀",
    "address": "경기 화성시 남양읍 남양리 2147",
    "district": "화성시",
    "lat": 37.1987908048969,
    "lng": 126.828735133374
  },
  "인천어린이과학관 공연장": {
    "name": "인천어린이과학관 공연장",
    "address": "인천 계양구 계산동 1116",
    "district": "계양구",
    "lat": 37.54784178458784,
    "lng": 126.7277384909796
  },
  "파라다이스시티 클럽크로마": {
    "name": "파라다이스시티 클럽크로마",
    "address": "인천 중구 운서동 2874",
    "district": "중구",
    "lat": 37.43626675099884,
    "lng": 126.45802806785528
  },
  "계양문화회관 대공연장": {
    "name": "계양문화회관 대공연장",
    "address": "인천 서구 가정동 430-21",
    "district": "서구",
    "lat": 37.5159779965578,
    "lng": 126.679956452191
  },
  "군포문화예술회관 수리홀": {
    "name": "군포문화예술회관 수리홀",
    "address": "경기 군포시 산본동 1101",
    "district": "군포시",
    "lat": 37.3665395869026,
    "lng": 126.927227234703
  },
  "김포아트홀": {
    "name": "김포아트홀",
    "address": "김포아트홀, 돌문로, 북변동, 김포시, 10108, 대한민국",
    "district": "김포시",
    "lat": 37.6189219,
    "lng": 126.7201411
  },
  "수원SK아트리움 대공연장": {
    "name": "수원SK아트리움 대공연장",
    "address": "경기 수원시 장안구 정자동 947",
    "district": "수원시",
    "lat": 37.3096881340366,
    "lng": 126.986481574203
  },
  "안양체육관": {
    "name": "안양체육관",
    "address": "경기 안양시 동안구 비산동 1023",
    "district": "안양시",
    "lat": 37.4050604844652,
    "lng": 126.94845109346
  },
  "송도컨벤시아": {
    "name": "송도컨벤시아",
    "address": "송도컨벤시아, 123, 센트럴로, 송도동, 송도1동, 연수구, 인천광역시, 21996, 대한민국",
    "district": "연수구",
    "lat": 37.3887756,
    "lng": 126.646738
  },
  "파주 솔가람아트홀": {
    "name": "파주 솔가람아트홀",
    "address": "솔가람아트홀, 책향기로, 와동동, 운정1동, 파주시, 10895, 대한민국",
    "district": "파주시",
    "lat": 37.7303624,
    "lng": 126.7638193
  },
  "콩치노 콩크리트 콘서트홀": {
    "name": "콩치노 콩크리트 콘서트홀",
    "address": "경기 파주시 탄현면 성동리 124-23",
    "district": "파주시",
    "lat": 37.7966753666747,
    "lng": 126.686392840839
  },
  "고양아람누리 아람음악당": {
    "name": "고양아람누리 아람음악당",
    "address": "경기 고양시 일산동구 마두동 816",
    "district": "고양시",
    "lat": 37.66078154180892,
    "lng": 126.77429733628516
  },
  "인천송도컨벤시아": {
    "name": "인천송도컨벤시아",
    "address": "인천 연수구 송도동 6-1",
    "district": "연수구",
    "lat": 37.388709805875195,
    "lng": 126.64683628072743
  },
  "부평문화사랑방": {
    "name": "부평문화사랑방",
    "address": "인천 부평구 갈산동 365-1",
    "district": "부평구",
    "lat": 37.5107555654037,
    "lng": 126.72570502278
  },
  "하남문화예술회관 대극장(검단홀)": {
    "name": "하남문화예술회관 대극장(검단홀)",
    "address": "하남문화예술회관 대극장, 덕풍동로, 덕풍동, 덕풍3동, 하남시, 12936, 대한민국",
    "district": "하남시",
    "lat": 37.5447456,
    "lng": 127.2068482
  },
  "안산대학교 강석봉기념관": {
    "name": "안산대학교 강석봉기념관",
    "address": "경기 안산시 상록구 일동 752",
    "district": "안산시",
    "lat": 37.3092872565723,
    "lng": 126.878023500901
  },
  "성남아트센터 콘서트홀": {
    "name": "성남아트센터 콘서트홀",
    "address": "성남아트센터 콘서트홀, 판교로, 판교, 분당구, 성남시, 13519, 대한민국",
    "district": "분당구",
    "lat": 37.4032047,
    "lng": 127.1319543
  },
  "킨텍스 제2전시장 10B홀": {
    "name": "킨텍스 제2전시장 10B홀",
    "address": "경기 고양시 일산서구 킨텍스로 217-59 , 1층",
    "district": "일산서구"
  },
  "인천남동체육관": {
    "name": "인천남동체육관",
    "address": "인천 남동구 수산동 602",
    "district": "남동구",
    "lat": 37.4346425602455,
    "lng": 126.733811034142
  },
  "킨텍스 제1전시장 2홀": {
    "name": "킨텍스 제1전시장 2홀",
    "address": "경기 고양시 일산서구 대화동 2307",
    "district": "고양시",
    "lat": 37.6694773193624,
    "lng": 126.74656243079
  },
  "일산 킨텍스 제2전시장 10A홀": {
    "name": "일산 킨텍스 제2전시장 10A홀",
    "address": "경기 고양시 일산서구 대화동 2700",
    "district": "고양시",
    "lat": 37.6647267128123,
    "lng": 126.741283396117
  },
  "수원컨벤션센터 1~2홀": {
    "name": "수원컨벤션센터 1~2홀",
    "address": "경기 수원시 영통구 광교중앙로 140",
    "district": "영통구"
  },
  "송도컨벤시아 4홀": {
    "name": "송도컨벤시아 4홀",
    "address": "인천 연수구 센트럴로 123 송도컨벤시아",
    "district": "연수구",
    "lat": 37.4102,
    "lng": 126.6782
  },
  "남동체육관": {
    "name": "남동체육관",
    "address": "남동체육관, 서창남로, 수산동, 남촌도림동, 남동구, 인천광역시, 21598, 대한민국",
    "district": "남동구",
    "lat": 37.4346148,
    "lng": 126.7338532
  },