{
  "디큐브 링크아트센터": {
    "name": "디큐브 링크아트센터",
    "address": "정보 없음",
    "district": ""
  },
  "노원구민의전당 (구.노원구민회관)": {
    "name": "노원구민의전당 (구.노원구민회관)",
    "address": "정보 없음",
    "district": "노원구",
    "lat": 37.6542,
    "lng": 127.0568
  },
  "서대문문화체육회관 대극장": {
    "name": "서대문문화체육회관 대극장",
    "address": "정보 없음",
    "district": "서대문구",
    "lat": 37.5791,
    "lng": 126.9368
  },
  "강동구민회관 대강당": {
    "name": "강동구민회관 대강당",
    "address": "정보 없음",
    "district": "강동구",
    "lat": 37.5301,
    "lng": 127.1238
  },
  "성수아트홀": {
    "name": "성수아트홀",
    "address": "정보 없음",
    "district": ""
  },
  "유니버설아트센터": {
    "name": "유니버설아트센터",
    "address": "정보 없음",
    "district": ""
  },
  "꿈의숲_퍼포먼스홀": {
    "name": "꿈의숲_퍼포먼스홀",
    "address": "정보 없음",
    "district": ""
  },
  "대학로 스타시티 7층 후암씨어터": {
    "name": "대학로 스타시티 7층 후암씨어터",
    "address": "정보 없음",
    "district": ""
  },
  "도봉구민회관 하모니홀": {
    "name": "도봉구민회관 하모니홀",
    "address": "정보 없음",
    "district": "도봉구",
    "lat": 37.6688,
    "lng": 127.0471
  },
  "노원문화예술회관 대공연장": {
    "name": "노원문화예술회관 대공연장",
    "address": "정보 없음",
    "district": "노원구",
    "lat": 37.6542,
    "lng": 127.0568
  },
  "GS아트센터": {
    "name": "GS아트센터",
    "address": "정보 없음",
    "district": ""
  },
  "예술의전당 오페라극장": {
    "name": "예술의전당 오페라극장",
    "address": "정보 없음",
    "district": ""
  },
  "매키탄 호텔 (The McKithan Hotel)": {
    "name": "매키탄 호텔 (The McKithan Hotel)",
    "address": "정보 없음",
    "district": ""
  },
  "경복궁아트홀": {
    "name": "경복궁아트홀",
    "address": "정보 없음",
    "district": ""
  },
  "한국방송회관 2층 코바코홀": {
    "name": "한국방송회관 2층 코바코홀",
    "address": "정보 없음",
    "district": ""
  },
  "오류아트홀": {
    "name": "오류아트홀",
    "address": "정보 없음",
    "district": ""
  },
  "강서구민회관 우장홀": {
    "name": "강서구민회관 우장홀",
    "address": "정보 없음",
    "district": "강서구",
    "lat": 37.5509,
    "lng": 126.8497
  },
  "장충체육관": {
    "name": "장충체육관",
    "address": "정보 없음",
    "district": ""
  },
  "잠실학생체육관": {
    "name": "잠실학생체육관",
    "address": "서울 송파구 올림픽로 25",
    "district": "송파구",
    "lat": 37.5121,
    "lng": 127.0762
  },
  "인천 계양체육관": {
    "name": "인천 계양체육관",
    "address": "인천 계양구 봉오대로 855",
    "district": "계양구",
    "lat": 37.5524,
    "lng": 126.7335
  },
  "인천 삼산월드체육관": {
    "name": "인천 삼산월드체육관",
    "address": "인천 부평구 체육관로 60",
    "district": "부평구",
    "lat": 37.5085,
    "lng": 126.7436
  },
  "수원 실내체육관": {
    "name": "수원 실내체육관",
    "address": "경기 수원시 장안구 경수대로 893",
    "district": "장안구",
    "lat": 37.2982,
    "lng": 127.0096
  },
  "수원실내체육관": {
    "name": "수원 실내체육관",
    "address": "경기 수원시 장안구 경수대로 893",
    "district": "장안구",
    "lat": 37.2982,
    "lng": 127.0096
  },
  "의정부 경민대학교 기념관(체육관)": {
    "name": "의정부 경민대학교 기념관",
    "address": "경기 의정부시 서부로 545",
    "district": "의정부시",
    "lat": 37.7372,
    "lng": 127.0335
  },
  "화성종합경기타운 실내체육관": {
    "name": "화성종합경기타운 실내체육관",
    "address": "경기 화성시 향남읍 향남로 470",
    "district": "화성시",
    "lat": 37.1334,
    "lng": 126.9213
  },
  "수원 KT 소닉붐 아레나": {
    "name": "수원 KT 소닉붐 아레나",
    "address": "경기 수원시 권선구 서수원로577번길 171",
    "district": "권선구",
    "lat": 37.2662,
    "lng": 126.9495
  },
  "고양소노아레나": {
    "name": "고양소노아레나",
    "address": "경기 고양시 일산서구 중앙로 1601",
    "district": "일산서구",
    "lat": 37.6749,
    "lng": 126.7472
  },
  "영등포아트홀": {
    "name": "영등포아트홀",
    "address": "정보 없음",
    "district": "영등포구",
    "lat": 37.5266838,
    "lng": 126.9001923
  },
  "성균관대학교 새천년홀": {
    "name": "성균관대학교 새천년홀",
    "address": "정보 없음",
    "district": ""
  },
  "용산아트홀 대극장 미르": {
    "name": "용산아트홀 대극장 미르",
    "address": "정보 없음",
    "district": "용산구",
    "lat": 37.5323,
    "lng": 126.9906
  },
  "티켓링크 1975 씨어터 (구 어린이회관 문화관)": {
    "name": "티켓링크 1975 씨어터 (구 어린이회관 문화관)",
    "address": "정보 없음",
    "district": ""
  },
  "양천문화회관 대극장": {
    "name": "양천문화회관 대극장",
    "address": "정보 없음",
    "district": "양천구",
    "lat": 37.5169,
    "lng": 126.866
  },
  "달밤엔씨어터": {
    "name": "달밤엔씨어터",
    "address": "정보 없음",
    "district": ""
  },
  "KT＆G 상상마당 대치아트홀": {
    "name": "KT＆G 상상마당 대치아트홀",
    "address": "정보 없음",
    "district": ""
  },
  "나루아트센터 대공연장": {
    "name": "나루아트센터 대공연장",
    "address": "정보 없음",
    "district": ""
  },
  "국립중앙박물관 극장 용": {
    "name": "국립중앙박물관 극장 용",
    "address": "정보 없음",
    "district": ""
  },
  "광림아트센터 BBCH홀": {
    "name": "광림아트센터 BBCH홀",
    "address": "정보 없음",
    "district": ""
  },
  "구로구민회관 대강당": {
    "name": "구로구민회관 대강당",
    "address": "정보 없음",
    "district": "구로구",
    "lat": 37.4954,
    "lng": 126.8874
  },
  "광진청소년센터 대극장": {
    "name": "광진청소년센터 대극장",
    "address": "정보 없음",
    "district": ""
  },
  "서연아트홀": {
    "name": "서연아트홀",
    "address": "정보 없음",
    "district": ""
  },
  "강서아트리움 아리홀": {
    "name": "강서아트리움 아리홀",
    "address": "정보 없음",
    "district": "강서구",
    "lat": 37.5509,
    "lng": 126.8497
  },
  "성북구민회관 대강당": {
    "name": "성북구민회관 대강당",
    "address": "정보 없음",
    "district": "성북구",
    "lat": 37.5891,
    "lng": 127.0182
  },
  "서울 상상나라극장": {
    "name": "서울 상상나라극장",
    "address": "정보 없음",
    "district": ""
  },
  "국립극장 달오름극장": {
    "name": "국립극장 달오름극장",
    "address": "정보 없음",
    "district": ""
  },
  "국립극장 해오름극장": {
    "name": "국립극장 해오름극장",
    "address": "정보 없음",
    "district": ""
  },
  "구로예술나무씨어터": {
    "name": "구로예술나무씨어터",
    "address": "정보 없음",
    "district": ""
  },
  "명륜아트홀": {
    "name": "명륜아트홀",
    "address": "정보 없음",
    "district": ""
  },
  "명동난타극장": {
    "name": "명동난타극장",
    "address": "정보 없음",
    "district": ""
  },
  "홍대난타극장": {
    "name": "홍대난타극장",
    "address": "정보 없음",
    "district": ""
  },
  "NOL 유니플렉스 3관": {
    "name": "NOL 유니플렉스 3관",
    "address": "정보 없음",
    "district": ""
  },
  "한성아트홀": {
    "name": "한성아트홀",
    "address": "정보 없음",
    "district": ""
  },
  "후암스테이지 1관": {
    "name": "후암스테이지 1관",
    "address": "정보 없음",
    "district": ""
  },
  "엠스테이지 2관": {
    "name": "엠스테이지 2관",
    "address": "정보 없음",
    "district": ""
  },
  "큐씨어터": {
    "name": "큐씨어터",
    "address": "정보 없음",
    "district": ""
  },
  "강동아트센터 소극장 드림": {
    "name": "강동아트센터 소극장 드림",
    "address": "정보 없음",
    "district": "강동구",
    "lat": 37.5301,
    "lng": 127.1238
  },
  "JS아트홀(구,고스트씨어터)": {
    "name": "JS아트홀(구,고스트씨어터)",
    "address": "정보 없음",
    "district": ""
  },
  "브릭스씨어터": {
    "name": "브릭스씨어터",
    "address": "정보 없음",
    "district": ""
  },
  "대학로 하마씨어터": {
    "name": "대학로 하마씨어터",
    "address": "정보 없음",
    "district": ""
  },
  "예스24스테이지 1관": {
    "name": "예스24스테이지 1관",
    "address": "정보 없음",
    "district": ""
  },
  "코엑스아티움": {
    "name": "코엑스아티움",
    "address": "정보 없음",
    "district": ""
  },
  "대학로 TOM(티오엠) 1관": {
    "name": "대학로 TOM(티오엠) 1관",
    "address": "정보 없음",
    "district": ""
  },
  "백암아트홀": {
    "name": "백암아트홀",
    "address": "정보 없음",
    "district": ""
  },
  "강동아트센터 대극장 한강": {
    "name": "강동아트센터 대극장 한강",
    "address": "정보 없음",
    "district": "강동구",
    "lat": 37.5301,
    "lng": 127.1238
  },
  "블루스퀘어 신한카드홀": {
    "name": "블루스퀘어 신한카드홀",
    "address": "정보 없음",
    "district": ""
  },
  "홍익대 대학로 아트센터 대극장": {
    "name": "홍익대 대학로 아트센터 대극장",
    "address": "정보 없음",
    "district": ""
  },
  "LG아트센터 서울 LG SIGNATURE 홀": {
    "name": "LG아트센터 서울 LG SIGNATURE 홀",
    "address": "정보 없음",
    "district": ""
  },
  "충무아트센터 중극장 블랙": {
    "name": "충무아트센터 중극장 블랙",
    "address": "정보 없음",
    "district": ""
  },
  "NOL 유니플렉스 2관": {
    "name": "NOL 유니플렉스 2관",
    "address": "정보 없음",
    "district": ""
  },
  "예스24스테이지 2관": {
    "name": "예스24스테이지 2관",
    "address": "정보 없음",
    "district": ""
  },
  "JTN 아트홀 1관": {
    "name": "JTN 아트홀 1관",
    "address": "정보 없음",
    "district": ""
  },
  "NOL 유니플렉스 1관": {
    "name": "NOL 유니플렉스 1관",
    "address": "정보 없음",
    "district": ""
  },
  "서울숲 씨어터 1관": {
    "name": "서울숲 씨어터 1관",
    "address": "정보 없음",
    "district": ""
  },
  "대학로 자유극장": {
    "name": "대학로 자유극장",
    "address": "정보 없음",
    "district": ""
  },
  "루미나아트홀": {
    "name": "루미나아트홀",
    "address": "정보 없음",
    "district": ""
  },
  "극장 온(구 CJ아지트)": {
    "name": "극장 온(구 CJ아지트)",
    "address": "정보 없음",
    "district": ""
  },
  "서울숲 씨어터 2관": {
    "name": "서울숲 씨어터 2관",
    "address": "정보 없음",
    "district": ""
  },
  "극장 온": {
    "name": "극장 온",
    "address": "정보 없음",
    "district": ""
  },
  "NOL 서경스퀘어 스콘 1관": {
    "name": "NOL 서경스퀘어 스콘 1관",
    "address": "정보 없음",
    "district": ""
  },
  "et theatre 1 (이티 씨어터 원)": {
    "name": "et theatre 1 (이티 씨어터 원)",
    "address": "정보 없음",
    "district": ""
  },
  "샤롯데씨어터": {
    "name": "샤롯데씨어터",
    "address": "정보 없음",
    "district": ""
  },
  "링크아트센터 페이코홀": {
    "name": "링크아트센터 페이코홀",
    "address": "정보 없음",
    "district": ""
  },
  "대학로 스타시티": {
    "name": "대학로 스타시티",
    "address": "정보 없음",
    "district": ""
  },
  "링크아트센터 벅스홀": {
    "name": "링크아트센터 벅스홀",
    "address": "정보 없음",
    "district": ""
  },
  "동덕여자대학교 공연예술센터 코튼홀": {
    "name": "동덕여자대학교 공연예술센터 코튼홀",
    "address": "정보 없음",
    "district": ""
  },
  "예술의전당 CJ 토월극장": {
    "name": "예술의전당 CJ 토월극장",
    "address": "정보 없음",
    "district": ""
  },
  "올림픽공원 뮤즈라이브홀": {
    "name": "올림픽공원 뮤즈라이브홀",
    "address": "정보 없음",
    "district": ""
  },
  "링크아트센터드림 드림3관": {
    "name": "링크아트센터드림 드림3관",
    "address": "정보 없음",
    "district": ""
  },
  "충무아트센터 대극장": {
    "name": "충무아트센터 대극장",
    "address": "정보 없음",
    "district": ""
  },
  "링크아트센터드림 드림2관": {
    "name": "링크아트센터드림 드림2관",
    "address": "정보 없음",
    "district": ""
  },
  "대학로 스튜디오 블루": {
    "name": "대학로 스튜디오 블루",
    "address": "정보 없음",
    "district": ""
  },
  "한전아트센터": {
    "name": "한전아트센터",
    "address": "정보 없음",
    "district": ""
  },
  "북촌나래홀": {
    "name": "북촌나래홀",
    "address": "정보 없음",
    "district": ""
  },
  "무하아트센터": {
    "name": "무하아트센터",
    "address": "정보 없음",
    "district": ""
  },
  "Converse Stage Arena “여명”": {
    "name": "Converse Stage Arena “여명”",
    "address": "정보 없음",
    "district": ""
  },
  "CTS아트홀": {
    "name": "CTS아트홀",
    "address": "정보 없음",
    "district": ""
  },
  "세종문화회관 M씨어터": {
    "name": "세종문화회관 M씨어터",
    "address": "정보 없음",
    "district": ""
  },
  "R&J씨어터": {
    "name": "R&J씨어터",
    "address": "정보 없음",
    "district": ""
  },
  "스타스테이지": {
    "name": "스타스테이지",
    "address": "정보 없음",
    "district": ""
  },
  "허리우드극장 4층 낭만극장": {
    "name": "허리우드극장 4층 낭만극장",
    "address": "정보 없음",
    "district": ""
  },
  "링크아트센터드림 드림1관": {
    "name": "링크아트센터드림 드림1관",
    "address": "정보 없음",
    "district": ""
  },
  "뮤지컬펍 스폿라이트": {
    "name": "뮤지컬펍 스폿라이트",
    "address": "정보 없음",
    "district": ""
  },
  "올림아트센터": {
    "name": "올림아트센터",
    "address": "정보 없음",
    "district": ""
  },
  "소월아트홀": {
    "name": "소월아트홀",
    "address": "정보 없음",
    "district": ""
  },
  "연세대학교 백주년기념관": {
    "name": "연세대학교 백주년기념관",
    "address": "정보 없음",
    "district": ""
  },
  "뮤지컬펍 커튼콜": {
    "name": "뮤지컬펍 커튼콜",
    "address": "정보 없음",
    "district": ""
  },
  "올림픽공원 우리금융아트홀": {
    "name": "올림픽공원 우리금융아트홀",
    "address": "정보 없음",
    "district": ""
  },
  "와일드 와일드 전용관 (명보아트홀)": {
    "name": "와일드 와일드 전용관 (명보아트홀)",
    "address": "정보 없음",
    "district": ""
  },
  "서울숲씨어터 1관": {
    "name": "서울숲씨어터 1관",
    "address": "정보 없음",
    "district": ""
  },
  "터치파이브 전용관": {
    "name": "터치파이브 전용관",
    "address": "정보 없음",
    "district": ""
  },
  "미마지아트센터 물빛극장": {
    "name": "미마지아트센터 물빛극장",
    "address": "정보 없음",
    "district": ""
  },
  "명보아트홀 B1F 다온홀": {
    "name": "명보아트홀 B1F 다온홀",
    "address": "정보 없음",
    "district": ""
  },
  "구로아트밸리 예술극장": {
    "name": "구로아트밸리 예술극장",
    "address": "정보 없음",
    "district": ""
  },
  "목동아이스링크": {
    "name": "목동아이스링크",
    "address": "정보 없음",
    "district": ""
  },
  "플러스씨어터": {
    "name": "플러스씨어터",
    "address": "정보 없음",
    "district": ""
  },
  "대학로 서연아트홀": {
    "name": "대학로 서연아트홀",
    "address": "정보 없음",
    "district": ""
  },
  "대학로 라온씨어터": {
    "name": "대학로 라온씨어터",
    "address": "정보 없음",
    "district": ""
  },
  "성신여대 운정그린캠퍼스 대강당": {
    "name": "성신여대 운정그린캠퍼스 대강당",
    "address": "정보 없음",
    "district": ""
  },
  "JTN 아트홀 2관": {
    "name": "JTN 아트홀 2관",
    "address": "정보 없음",
    "district": ""
  },
  "브이씨어터": {
    "name": "브이씨어터",
    "address": "정보 없음",
    "district": ""
  },
  "해당공연 공연장－서울": {
    "name": "해당공연 공연장－서울",
    "address": "정보 없음",
    "district": ""
  },
  "지구인아트홀": {
    "name": "지구인아트홀",
    "address": "정보 없음",
    "district": ""
  },
  "국립정동극장": {
    "name": "국립정동극장",
    "address": "정보 없음",
    "district": ""
  },
  "명보아트홀 지하3층 점프 전용극장": {
    "name": "명보아트홀 지하3층 점프 전용극장",
    "address": "정보 없음",
    "district": ""
  },
  "잠실종합운동장 내 빅탑": {
    "name": "잠실종합운동장 내 빅탑",
    "address": "정보 없음",
    "district": ""
  },
  "마포아트센터 플레이맥": {
    "name": "마포아트센터 플레이맥",
    "address": "정보 없음",
    "district": "마포구",
    "lat": 37.5665,
    "lng": 126.9018
  },
  "광화문 전용관(경향아트힐)": {
    "name": "광화문 전용관(경향아트힐)",
    "address": "정보 없음",
    "district": ""
  },
  "서대문 전용관(NH아트홀)": {
    "name": "서대문 전용관(NH아트홀)",
    "address": "정보 없음",
    "district": ""
  },
  "후암스테이지": {
    "name": "후암스테이지",
    "address": "정보 없음",
    "district": ""
  },
  "KBS 아레나": {
    "name": "KBS 아레나",
    "address": "정보 없음",
    "district": ""
  },
  "라이브홀 문래재즈IN": {
    "name": "라이브홀 문래재즈IN",
    "address": "정보 없음",
    "district": ""
  },
  "성신여자대학교 운정그린캠퍼스 대강당": {
    "name": "성신여자대학교 운정그린캠퍼스 대강당",
    "address": "정보 없음",
    "district": ""
  },
  "잠실실내체육관": {
    "name": "잠실실내체육관",
    "address": "정보 없음",
    "district": ""
  },
  "K-POP STAGE": {
    "name": "K-POP STAGE",
    "address": "정보 없음",
    "district": ""
  },
  "블루스퀘어 SOL트래블홀": {
    "name": "블루스퀘어 SOL트래블홀",
    "address": "정보 없음",
    "district": ""
  },
  "로운아트홀": {
    "name": "로운아트홀",
    "address": "정보 없음",
    "district": ""
  },
  "올림픽공원 올림픽홀": {
    "name": "올림픽공원 올림픽홀",
    "address": "정보 없음",
    "district": ""
  },
  "홍대스테이지": {
    "name": "홍대스테이지",
    "address": "정보 없음",
    "district": ""
  },
  "앰배서더 서울 풀만 호텔": {
    "name": "앰배서더 서울 풀만 호텔",
    "address": "정보 없음",
    "district": ""
  },
  "경희대학교 평화의전당": {
    "name": "경희대학교 평화의전당",
    "address": "정보 없음",
    "district": ""
  },
  "웨스트브릿지 라이브홀": {
    "name": "웨스트브릿지 라이브홀",
    "address": "정보 없음",
    "district": ""
  },
  "연세대학교 대강당": {
    "name": "연세대학교 대강당",
    "address": "정보 없음",
    "district": ""
  },
  "광림아트센터 장천홀": {
    "name": "광림아트센터 장천홀",
    "address": "정보 없음",
    "district": ""
  },
  "신한카드 SOL페이 스퀘어 라이브홀": {
    "name": "신한카드 SOL페이 스퀘어 라이브홀",
    "address": "정보 없음",
    "district": ""
  },
  "가빈아트홀": {
    "name": "가빈아트홀",
    "address": "정보 없음",
    "district": ""
  },
  "코엑스 D홀": {
    "name": "코엑스 D홀",
    "address": "정보 없음",
    "district": ""
  },
  "마포아트센터 아트홀 맥": {
    "name": "마포아트센터 아트홀 맥",
    "address": "정보 없음",
    "district": "마포구",
    "lat": 37.5665,
    "lng": 126.9018
  },
  "동대문디자인플라자(DDP) 아트홀 1관": {
    "name": "동대문디자인플라자(DDP) 아트홀 1관",
    "address": "정보 없음",
    "district": ""
  },
  "KSPO DOME": {
    "name": "KSPO DOME",
    "address": "정보 없음",
    "district": ""
  },
  "그랜드 인터컨티넨탈 서울 파르나스 호텔": {
    "name": "그랜드 인터컨티넨탈 서울 파르나스 호텔",
    "address": "정보 없음",
    "district": ""
  },
  "티켓링크 라이브 아레나 (올림픽 핸드볼경기장)": {
    "name": "티켓링크 라이브 아레나 (올림픽 핸드볼경기장)",
    "address": "정보 없음",
    "district": ""
  },
  "잠실 실내체육관": {
    "name": "잠실 실내체육관",
    "address": "정보 없음",
    "district": ""
  },
  "메사홀": {
    "name": "메사홀",
    "address": "정보 없음",
    "district": ""
  },
  "EBS스페이스홀": {
    "name": "EBS스페이스홀",
    "address": "정보 없음",
    "district": ""
  },
  "KBS아레나": {
    "name": "KBS아레나",
    "address": "정보 없음",
    "district": ""
  },
  "노들섬 라이브하우스": {
    "name": "노들섬 라이브하우스",
    "address": "정보 없음",
    "district": ""
  },
  "엠팟홀": {
    "name": "엠팟홀",
    "address": "정보 없음",
    "district": ""
  },
  "은평문화예술회관 공연장": {
    "name": "은평문화예술회관 공연장",
    "address": "정보 없음",
    "district": "은평구",
    "lat": 37.6027,
    "lng": 126.9291
  },
  "세종대학교 대양홀": {
    "name": "세종대학교 대양홀",
    "address": "정보 없음",
    "district": ""
  },
  "예술의전당 콘서트홀": {
    "name": "예술의전당 콘서트홀",
    "address": "정보 없음",
    "district": ""
  },
  "무신사 개러지": {
    "name": "무신사 개러지",
    "address": "정보 없음",
    "district": ""
  },
  "명화라이브홀": {
    "name": "명화라이브홀",
    "address": "정보 없음",
    "district": ""
  },
  "CJ아지트 광흥창": {
    "name": "CJ아지트 광흥창",
    "address": "정보 없음",
    "district": ""
  },
  "코엑스 D홀 (COEX HALL D)": {
    "name": "코엑스 D홀 (COEX HALL D)",
    "address": "정보 없음",
    "district": ""
  },
  "올림픽공원 KSPO DOME": {
    "name": "올림픽공원 KSPO DOME",
    "address": "정보 없음",
    "district": ""
  },
  "홍대 롤링홀": {
    "name": "홍대 롤링홀",
    "address": "정보 없음",
    "district": ""
  },
  "세종문화회관 대극장": {
    "name": "세종문화회관 대극장",
    "address": "정보 없음",
    "district": ""
  },
  "SA HALL": {
    "name": "SA HALL",
    "address": "정보 없음",
    "district": ""
  },
  "사천문화예술회관 대공연장": {
    "name": "사천문화예술회관 대공연장",
    "address": "정보 없음",
    "district": ""
  },
  "예림당아트홀": {
    "name": "예림당아트홀",
    "address": "정보 없음",
    "district": ""
  },
  "엠피엠지 2층 LOUNGE M.": {
    "name": "엠피엠지 2층 LOUNGE M.",
    "address": "정보 없음",
    "district": ""
  },
  "KT＆G 상상마당 홍대 라이브홀": {
    "name": "KT＆G 상상마당 홍대 라이브홀",
    "address": "정보 없음",
    "district": ""
  },
  "홍대 플렉스라운지": {
    "name": "홍대 플렉스라운지",
    "address": "정보 없음",
    "district": ""
  },
  "스카이아트홀": {
    "name": "스카이아트홀",
    "address": "정보 없음",
    "district": ""
  },
  "인천종합문화예술회관 소공연장": {
    "name": "인천종합문화예술회관 소공연장",
    "address": "정보 없음",
    "district": "인천",
    "lat": 37.4563,
    "lng": 126.7052
  },
  "흰물결 아트센터 화이트홀": {
    "name": "흰물결 아트센터 화이트홀",
    "address": "정보 없음",
    "district": ""
  },
  "그랜드 인터컨티넨탈 서울 파르나스 5층 그랜드볼룸": {
    "name": "그랜드 인터컨티넨탈 서울 파르나스 5층 그랜드볼룸",
    "address": "정보 없음",
    "district": ""
  },
  "워커힐호텔 비스타홀": {
    "name": "워커힐호텔 비스타홀",
    "address": "정보 없음",
    "district": ""
  },
  "윤당아트홀": {
    "name": "윤당아트홀",
    "address": "정보 없음",
    "district": ""
  },
  "구름아래소극장": {
    "name": "구름아래소극장",
    "address": "정보 없음",
    "district": ""
  },
  "언더시티": {
    "name": "언더시티",
    "address": "정보 없음",
    "district": ""
  },
  "벨로주 홍대": {
    "name": "벨로주 홍대",
    "address": "정보 없음",
    "district": ""
  },
  "KT＆G 상상마당 라이브홀": {
    "name": "KT＆G 상상마당 라이브홀",
    "address": "정보 없음",
    "district": ""
  },
  "한양대학교 올림픽체육관": {
    "name": "한양대학교 올림픽체육관",
    "address": "정보 없음",
    "district": ""
  },
  "나인진홀 1관": {
    "name": "나인진홀 1관",
    "address": "정보 없음",
    "district": ""
  },
  "베짱이홀": {
    "name": "베짱이홀",
    "address": "정보 없음",
    "district": ""
  },
  "강남씨어터": {
    "name": "강남씨어터",
    "address": "정보 없음",
    "district": ""
  },
  "연남스페이스": {
    "name": "연남스페이스",
    "address": "정보 없음",
    "district": ""
  },
  "캔버스N홀": {
    "name": "캔버스N홀",
    "address": "정보 없음",
    "district": ""
  },
  "YES24 LIVE HALL": {
    "name": "YES24 LIVE HALL",
    "address": "정보 없음",
    "district": ""
  },
  "고려대학교 화정체육관": {
    "name": "고려대학교 화정체육관",
    "address": "정보 없음",
    "district": ""
  },
  "명화 라이브홀 5층 라운지": {
    "name": "명화 라이브홀 5층 라운지",
    "address": "정보 없음",
    "district": ""
  },
  "흰물결아트센터 화이트홀": {
    "name": "흰물결아트센터 화이트홀",
    "address": "정보 없음",
    "district": ""
  },
  "파랑새극장": {
    "name": "파랑새극장",
    "address": "정보 없음",
    "district": ""
  },
  "꿈빛극장": {
    "name": "꿈빛극장",
    "address": "정보 없음",
    "district": ""
  },
  "라움아트센터 마제스틱 볼룸": {
    "name": "라움아트센터 마제스틱 볼룸",
    "address": "정보 없음",
    "district": ""
  },
  "공감센터 공감홀": {
    "name": "공감센터 공감홀",
    "address": "정보 없음",
    "district": ""
  },
  "SA Hall": {
    "name": "SA Hall",
    "address": "정보 없음",
    "district": ""
  },
  "고척스카이돔": {
    "name": "고척스카이돔",
    "address": "정보 없음",
    "district": ""
  },
  "이화여자대학교 대강당": {
    "name": "이화여자대학교 대강당",
    "address": "정보 없음",
    "district": ""
  },
  "재즈런치": {
    "name": "재즈런치",
    "address": "정보 없음",
    "district": ""
  },
  "푸르지오 아트홀": {
    "name": "푸르지오 아트홀",
    "address": "정보 없음",
    "district": ""
  },
  "티켓링크 라이브 아레나(핸드볼경기장)": {
    "name": "티켓링크 라이브 아레나(핸드볼경기장)",
    "address": "정보 없음",
    "district": ""
  },
  "무신사개러지": {
    "name": "무신사개러지",
    "address": "정보 없음",
    "district": ""
  },
  "잠실 학생체육관": {
    "name": "잠실 학생체육관",
    "address": "정보 없음",
    "district": ""
  },
  "광주 조선대학교 해오름관": {
    "name": "광주 조선대학교 해오름관",
    "address": "정보 없음",
    "district": ""
  },
  "라움아트센터 4F 체임버홀": {
    "name": "라움아트센터 4F 체임버홀",
    "address": "정보 없음",
    "district": ""
  },
  "KT&G 상상마당 홍대 라이브홀": {
    "name": "KT&G 상상마당 홍대 라이브홀",
    "address": "정보 없음",
    "district": ""
  },
  "재즈클럽 그루브": {
    "name": "재즈클럽 그루브",
    "address": "정보 없음",
    "district": ""
  },
  "인스파이어 아레나": {
    "name": "인스파이어 아레나",
    "address": "정보 없음",
    "district": ""
  },
  "상명아트센터 계당홀": {
    "name": "상명아트센터 계당홀",
    "address": "정보 없음",
    "district": ""
  },
  "Dule Studio": {
    "name": "Dule Studio",
    "address": "정보 없음",
    "district": ""
  },
  "SPACE BRICK": {
    "name": "SPACE BRICK",
    "address": "정보 없음",
    "district": ""
  },
  "JS 아트홀": {
    "name": "JS 아트홀",
    "address": "정보 없음",
    "district": ""
  },
  "롯데콘서트홀": {
    "name": "롯데콘서트홀",
    "address": "정보 없음",
    "district": ""
  },
  "홍대 BENDER": {
    "name": "홍대 BENDER",
    "address": "정보 없음",
    "district": ""
  },
  "해바라기 소극장": {
    "name": "해바라기 소극장",
    "address": "정보 없음",
    "district": ""
  },
  "대학로 아트하우스": {
    "name": "대학로 아트하우스",
    "address": "정보 없음",
    "district": ""
  },
  "대학로 해피씨어터": {
    "name": "대학로 해피씨어터",
    "address": "정보 없음",
    "district": ""
  },
  "신세계 스튜디오 1관": {
    "name": "신세계 스튜디오 1관",
    "address": "정보 없음",
    "district": ""
  },
  "대학로극장 쿼드": {
    "name": "대학로극장 쿼드",
    "address": "정보 없음",
    "district": ""
  },
  "NC문화재단 Stage Black": {
    "name": "NC문화재단 Stage Black",
    "address": "정보 없음",
    "district": ""
  },
  "종로 아이들극장": {
    "name": "종로 아이들극장",
    "address": "정보 없음",
    "district": ""
  },
  "대학로 한예극장 1관": {
    "name": "대학로 한예극장 1관",
    "address": "정보 없음",
    "district": ""
  },
  "단막극장": {
    "name": "단막극장",
    "address": "정보 없음",
    "district": ""
  },
  "대학로 세우아트센터 2관": {
    "name": "대학로 세우아트센터 2관",
    "address": "정보 없음",
    "district": ""
  },
  "종로 반쥴": {
    "name": "종로 반쥴",
    "address": "정보 없음",
    "district": ""
  },
  "노원어린이극장": {
    "name": "노원어린이극장",
    "address": "정보 없음",
    "district": ""
  },
  "아스가르드 씨어터": {
    "name": "아스가르드 씨어터",
    "address": "정보 없음",
    "district": ""
  },
  "부암아트홀": {
    "name": "부암아트홀",
    "address": "정보 없음",
    "district": ""
  },
  "하땅세극장": {
    "name": "하땅세극장",
    "address": "정보 없음",
    "district": ""
  },
  "광복극장": {
    "name": "광복극장",
    "address": "정보 없음",
    "district": ""
  },
  "연극실험실 혜화동 1번지": {
    "name": "연극실험실 혜화동 1번지",
    "address": "정보 없음",
    "district": ""
  },
  "선돌극장": {
    "name": "선돌극장",
    "address": "정보 없음",
    "district": ""
  },
  "댕로홀": {
    "name": "댕로홀",
    "address": "정보 없음",
    "district": ""
  },
  "나루아트센터 스페이스76(전시실)": {
    "name": "나루아트센터 스페이스76(전시실)",
    "address": "정보 없음",
    "district": ""
  },
  "국립극단 명동예술극장": {
    "name": "국립극단 명동예술극장",
    "address": "정보 없음",
    "district": ""
  },
  "더줌아트센터": {
    "name": "더줌아트센터",
    "address": "정보 없음",
    "district": ""
  },
  "국립극장 하늘극장": {
    "name": "국립극장 하늘극장",
    "address": "정보 없음",
    "district": ""
  },
  "JTN 아트홀 3관": {
    "name": "JTN 아트홀 3관",
    "address": "정보 없음",
    "district": ""
  },
  "상명아트홀 1관": {
    "name": "상명아트홀 1관",
    "address": "정보 없음",
    "district": ""
  },
  "상명아트홀 2관": {
    "name": "상명아트홀 2관",
    "address": "정보 없음",
    "district": ""
  },
  "연희예술극장": {
    "name": "연희예술극장",
    "address": "정보 없음",
    "district": ""
  },
  "부암루프탑": {
    "name": "부암루프탑",
    "address": "정보 없음",
    "district": ""
  },
  "성균소극장": {
    "name": "성균소극장",
    "address": "정보 없음",
    "district": ""
  },
  "스케치홀": {
    "name": "스케치홀",
    "address": "정보 없음",
    "district": ""
  },
  "아르코꿈밭극장": {
    "name": "아르코꿈밭극장",
    "address": "정보 없음",
    "district": ""
  },
  "대학로 열린극장": {
    "name": "대학로 열린극장",
    "address": "정보 없음",
    "district": ""
  },
  "하땅세 라이트스튜디오": {
    "name": "하땅세 라이트스튜디오",
    "address": "정보 없음",
    "district": ""
  },
  "JTN 아트홀 4관": {
    "name": "JTN 아트홀 4관",
    "address": "정보 없음",
    "district": ""
  },
  "초록씨어터": {
    "name": "초록씨어터",
    "address": "정보 없음",
    "district": ""
  },
  "아라아트홀": {
    "name": "아라아트홀",
    "address": "정보 없음",
    "district": ""
  },
  "대학로 제나아트홀": {
    "name": "대학로 제나아트홀",
    "address": "정보 없음",
    "district": ""
  },
  "코델아트홀": {
    "name": "코델아트홀",
    "address": "정보 없음",
    "district": ""
  },
  "라온아트홀": {
    "name": "라온아트홀",
    "address": "정보 없음",
    "district": ""
  },
  "모모씨어터": {
    "name": "모모씨어터",
    "address": "정보 없음",
    "district": ""
  },
  "동숭무대소극장": {
    "name": "동숭무대소극장",
    "address": "정보 없음",
    "district": ""
  },
  "소극장 공유": {
    "name": "소극장 공유",
    "address": "정보 없음",
    "district": ""
  },
  "물빛극장": {
    "name": "물빛극장",
    "address": "정보 없음",
    "district": ""
  },
  "한바탕 소극장": {
    "name": "한바탕 소극장",
    "address": "정보 없음",
    "district": ""
  },
  "시윤아트홀": {
    "name": "시윤아트홀",
    "address": "정보 없음",
    "district": ""
  },
  "더더더": {
    "name": "더더더",
    "address": "정보 없음",
    "district": ""
  },
  "소극장 혜화당": {
    "name": "소극장 혜화당",
    "address": "정보 없음",
    "district": ""
  },
  "플레이더씨어터": {
    "name": "플레이더씨어터",
    "address": "정보 없음",
    "district": ""
  },
  "올웨이즈씨어터": {
    "name": "올웨이즈씨어터",
    "address": "정보 없음",
    "district": ""
  },
  "H씨어터": {
    "name": "H씨어터",
    "address": "정보 없음",
    "district": ""
  },
  "한예극장": {
    "name": "한예극장",
    "address": "정보 없음",
    "district": ""
  },
  "예인아트홀": {
    "name": "예인아트홀",
    "address": "정보 없음",
    "district": ""
  },
  "나온씨어터": {
    "name": "나온씨어터",
    "address": "정보 없음",
    "district": ""
  },
  "여행자극장": {
    "name": "여행자극장",
    "address": "정보 없음",
    "district": ""
  },
  "씨어터 조이": {
    "name": "씨어터 조이",
    "address": "정보 없음",
    "district": ""
  },
  "신도림 오페라하우스 지하소극장": {
    "name": "신도림 오페라하우스 지하소극장",
    "address": "정보 없음",
    "district": ""
  },
  "북극곰소극장": {
    "name": "북극곰소극장",
    "address": "정보 없음",
    "district": ""
  },
  "대학로 소극장 혜화당": {
    "name": "대학로 소극장 혜화당",
    "address": "정보 없음",
    "district": ""
  },
  "지인시어터(구.알과핵소극장)": {
    "name": "지인시어터(구.알과핵소극장)",
    "address": "정보 없음",
    "district": ""
  },
  "소극장 산울림": {
    "name": "소극장 산울림",
    "address": "정보 없음",
    "district": ""
  },
  "창덕궁 소극장": {
    "name": "창덕궁 소극장",
    "address": "정보 없음",
    "district": ""
  },
  "아루또소극장": {
    "name": "아루또소극장",
    "address": "정보 없음",
    "district": ""
  },
  "안똔체홉극장": {
    "name": "안똔체홉극장",
    "address": "정보 없음",
    "district": ""
  },
  "대학로 지즐소극장": {
    "name": "대학로 지즐소극장",
    "address": "정보 없음",
    "district": ""
  },
  "홍대 씨어터 윤": {
    "name": "홍대 씨어터 윤",
    "address": "정보 없음",
    "district": ""
  },
  "대학로 스타릿홀": {
    "name": "대학로 스타릿홀",
    "address": "정보 없음",
    "district": ""
  },
  "파랑씨어터": {
    "name": "파랑씨어터",
    "address": "정보 없음",
    "district": ""
  },
  "성북마을극장": {
    "name": "성북마을극장",
    "address": "정보 없음",
    "district": ""
  },
  "대학로 드림시어터": {
    "name": "대학로 드림시어터",
    "address": "정보 없음",
    "district": ""
  },
  "신한카드 SOL페이 스퀘어 드림홀": {
    "name": "신한카드 SOL페이 스퀘어 드림홀",
    "address": "정보 없음",
    "district": ""
  },
  "제이원씨어터": {
    "name": "제이원씨어터",
    "address": "정보 없음",
    "district": ""
  },
  "씨어터 쿰": {
    "name": "씨어터 쿰",
    "address": "정보 없음",
    "district": ""
  },
  "CKL스테이지": {
    "name": "CKL스테이지",
    "address": "정보 없음",
    "district": ""
  },
  "북촌창우극장": {
    "name": "북촌창우극장",
    "address": "정보 없음",
    "district": ""
  },
  "설렘아트홀": {
    "name": "설렘아트홀",
    "address": "정보 없음",
    "district": ""
  },
  "창작플랫폼 경험과 상상": {
    "name": "창작플랫폼 경험과 상상",
    "address": "정보 없음",
    "district": ""
  },
  "대학로 바탕골 소극장": {
    "name": "대학로 바탕골 소극장",
    "address": "정보 없음",
    "district": ""
  },
  "대학로 TOM(티오엠) 2관": {
    "name": "대학로 TOM(티오엠) 2관",
    "address": "정보 없음",
    "district": ""
  },
  "문래예술공장 박스씨어터": {
    "name": "문래예술공장 박스씨어터",
    "address": "정보 없음",
    "district": ""
  },
  "NOL 서경스퀘어 스콘 2관": {
    "name": "NOL 서경스퀘어 스콘 2관",
    "address": "정보 없음",
    "district": ""
  },
  "마루아트홀": {
    "name": "마루아트홀",
    "address": "정보 없음",
    "district": ""
  },
  "한성아트홀 2관": {
    "name": "한성아트홀 2관",
    "address": "정보 없음",
    "district": ""
  },
  "LG아트센터 서울 U+ 스테이지": {
    "name": "LG아트센터 서울 U+ 스테이지",
    "address": "정보 없음",
    "district": ""
  },
  "관악아트홀": {
    "name": "관악아트홀",
    "address": "정보 없음",
    "district": "관악구",
    "lat": 37.4784,
    "lng": 126.9516
  },
  "카페CIRCA1950": {
    "name": "카페CIRCA1950",
    "address": "정보 없음",
    "district": ""
  },
  "놀터예술공방": {
    "name": "놀터예술공방",
    "address": "정보 없음",
    "district": ""
  },
  "명보아트홀 3층 라온홀": {
    "name": "명보아트홀 3층 라온홀",
    "address": "정보 없음",
    "district": ""
  },
  "더굿씨어터": {
    "name": "더굿씨어터",
    "address": "정보 없음",
    "district": ""
  },
  "홍익대 대학로 아트센터 소극장": {
    "name": "홍익대 대학로 아트센터 소극장",
    "address": "정보 없음",
    "district": ""
  },
  "DS ART HALL 창선당": {
    "name": "DS ART HALL 창선당",
    "address": "정보 없음",
    "district": ""
  },
  "NOL 씨어터 대학로 우리투자증권홀(구. 중극장)": {
    "name": "NOL 씨어터 대학로 우리투자증권홀(구. 중극장)",
    "address": "정보 없음",
    "district": ""
  },
  "콘텐츠박스(KONTENTZ BOX)": {
    "name": "콘텐츠박스(KONTENTZ BOX)",
    "address": "정보 없음",
    "district": ""
  },
  "예그린씨어터": {
    "name": "예그린씨어터",
    "address": "정보 없음",
    "district": ""
  },
  "예스24스테이지 3관": {
    "name": "예스24스테이지 3관",
    "address": "정보 없음",
    "district": ""
  },
  "대학로 틴틴홀": {
    "name": "대학로 틴틴홀",
    "address": "정보 없음",
    "district": ""
  },
  "컬쳐씨어터": {
    "name": "컬쳐씨어터",
    "address": "정보 없음",
    "district": ""
  },
  "스테이션 사람 사람홀": {
    "name": "스테이션 사람 사람홀",
    "address": "정보 없음",
    "district": ""
  },
  "미아리고개예술극장": {
    "name": "미아리고개예술극장",
    "address": "정보 없음",
    "district": ""
  },
  "예술의전당 자유소극장": {
    "name": "예술의전당 자유소극장",
    "address": "정보 없음",
    "district": ""
  },
  "예스24아트원 2관": {
    "name": "예스24아트원 2관",
    "address": "정보 없음",
    "district": ""
  },
  "링크아트센터드림 드림4관": {
    "name": "링크아트센터드림 드림4관",
    "address": "정보 없음",
    "district": ""
  },
  "도토리씨어터": {
    "name": "도토리씨어터",
    "address": "정보 없음",
    "district": ""
  },
  "피카소 소극장": {
    "name": "피카소 소극장",
    "address": "정보 없음",
    "district": ""
  },
  "예술공간 혜화": {
    "name": "예술공간 혜화",
    "address": "정보 없음",
    "district": ""
  },
  "대학로 올래홀": {
    "name": "대학로 올래홀",
    "address": "정보 없음",
    "district": ""
  },
  "무하아트센터 2관": {
    "name": "무하아트센터 2관",
    "address": "정보 없음",
    "district": ""
  },
  "연우소극장": {
    "name": "연우소극장",
    "address": "정보 없음",
    "district": ""
  },
  "대학로 아트포레스트 1관": {
    "name": "대학로 아트포레스트 1관",
    "address": "정보 없음",
    "district": ""
  },
  "봄날아트홀": {
    "name": "봄날아트홀",
    "address": "정보 없음",
    "district": ""
  },
  "대학로 스카이씨어터 2관": {
    "name": "대학로 스카이씨어터 2관",
    "address": "정보 없음",
    "district": ""
  },
  "창조소극장": {
    "name": "창조소극장",
    "address": "정보 없음",
    "district": ""
  },
  "맛있는극장": {
    "name": "맛있는극장",
    "address": "정보 없음",
    "district": ""
  },
  "나인진홀 2관": {
    "name": "나인진홀 2관",
    "address": "정보 없음",
    "district": ""
  },
  "대학로 공간아울": {
    "name": "대학로 공간아울",
    "address": "정보 없음",
    "district": ""
  },
  "레온갤러리 구의 플레이스라운드": {
    "name": "레온갤러리 구의 플레이스라운드",
    "address": "정보 없음",
    "district": ""
  },
  "극장 동국": {
    "name": "극장 동국",
    "address": "정보 없음",
    "district": ""
  },
  "대학로 오마이갓 전용관": {
    "name": "대학로 오마이갓 전용관",
    "address": "정보 없음",
    "district": ""
  },
  "업스테이지(UP STAGE)": {
    "name": "업스테이지(UP STAGE)",
    "address": "정보 없음",
    "district": ""
  },
  "대학로예술극장 소극장": {
    "name": "대학로예술극장 소극장",
    "address": "정보 없음",
    "district": ""
  },
  "고개 소극장": {
    "name": "고개 소극장",
    "address": "정보 없음",
    "district": ""
  },
  "모베터블루스": {
    "name": "모베터블루스",
    "address": "정보 없음",
    "district": ""
  },
  "우리소극장": {
    "name": "우리소극장",
    "address": "정보 없음",
    "district": ""
  },
  "미래아트홀": {
    "name": "미래아트홀",
    "address": "정보 없음",
    "district": ""
  },
  "정극장": {
    "name": "정극장",
    "address": "정보 없음",
    "district": ""
  },
  "대학로예술극장 대극장": {
    "name": "대학로예술극장 대극장",
    "address": "정보 없음",
    "district": ""
  },
  "대학로 봄날아트홀 2관": {
    "name": "대학로 봄날아트홀 2관",
    "address": "정보 없음",
    "district": ""
  },
  "성수소극장": {
    "name": "성수소극장",
    "address": "정보 없음",
    "district": ""
  },
  "아이들극장": {
    "name": "아이들극장",
    "address": "정보 없음",
    "district": ""
  },
  "세명대학교 민송아트홀 2관": {
    "name": "세명대학교 민송아트홀 2관",
    "address": "정보 없음",
    "district": ""
  },
  "뜻밖의극장": {
    "name": "뜻밖의극장",
    "address": "정보 없음",
    "district": ""
  },
  "봄날아트홀 1관": {
    "name": "봄날아트홀 1관",
    "address": "정보 없음",
    "district": ""
  },
  "씨어터쿰": {
    "name": "씨어터쿰",
    "address": "정보 없음",
    "district": ""
  },
  "대학로 아트포레스트 2관": {
    "name": "대학로 아트포레스트 2관",
    "address": "정보 없음",
    "district": ""
  },
  "두산아트센터 Space111": {
    "name": "두산아트센터 Space111",
    "address": "정보 없음",
    "district": ""
  },
  "삼일로 창고극장": {
    "name": "삼일로 창고극장",
    "address": "정보 없음",
    "district": ""
  },
  "JUNG THEATRE": {
    "name": "JUNG THEATRE",
    "address": "정보 없음",
    "district": ""
  },
  "카페 글렌": {
    "name": "카페 글렌",
    "address": "정보 없음",
    "district": ""
  },
  "영산아트홀": {
    "name": "영산아트홀",
    "address": "정보 없음",
    "district": ""
  },
  "세종문화회관 체임버홀": {
    "name": "세종문화회관 체임버홀",
    "address": "정보 없음",
    "district": ""
  },
  "세종대 컨벤션홀": {
    "name": "세종대 컨벤션홀",
    "address": "정보 없음",
    "district": ""
  },
  "크레디아클래식클럽 STUDIO": {
    "name": "크레디아클래식클럽 STUDIO",
    "address": "정보 없음",
    "district": ""
  },
  "강북문화예술회관 강북소나무홀": {
    "name": "강북문화예술회관 강북소나무홀",
    "address": "정보 없음",
    "district": "강북구",
    "lat": 37.6396,
    "lng": 127.0257
  },
  "페리지홀": {
    "name": "페리지홀",
    "address": "정보 없음",
    "district": ""
  },
  "아르코예술극장 소극장": {
    "name": "아르코예술극장 소극장",
    "address": "정보 없음",
    "district": ""
  },
  "갤러리 디아르테": {
    "name": "갤러리 디아르테",
    "address": "정보 없음",
    "district": ""
  },
  "라움아트센터": {
    "name": "라움아트센터",
    "address": "정보 없음",
    "district": ""
  },
  "로데아트센터 콘서트홀": {
    "name": "로데아트센터 콘서트홀",
    "address": "정보 없음",
    "district": ""
  },
  "반포심산아트홀": {
    "name": "반포심산아트홀",
    "address": "정보 없음",
    "district": ""
  },
  "스타인웨이 갤러리 서울": {
    "name": "스타인웨이 갤러리 서울",
    "address": "정보 없음",
    "district": ""
  },
  "예술의전당 리사이틀홀": {
    "name": "예술의전당 리사이틀홀",
    "address": "정보 없음",
    "district": ""
  },
  "예술의전당 IBK기업은행챔버홀": {
    "name": "예술의전당 IBK기업은행챔버홀",
    "address": "정보 없음",
    "district": ""
  },
  "금호아트홀 연세": {
    "name": "금호아트홀 연세",
    "address": "정보 없음",
    "district": ""
  },
  "거암아트홀": {
    "name": "거암아트홀",
    "address": "정보 없음",
    "district": ""
  },
  "금나래아트홀(금천구청내)": {
    "name": "금나래아트홀(금천구청내)",
    "address": "정보 없음",
    "district": "금천구",
    "lat": 37.4565,
    "lng": 126.8954
  },
  "푸르지오아트홀": {
    "name": "푸르지오아트홀",
    "address": "정보 없음",
    "district": ""
  },
  "JCC아트센터 콘서트홀": {
    "name": "JCC아트센터 콘서트홀",
    "address": "정보 없음",
    "district": ""
  },
  "예술의전당 인춘아트홀": {
    "name": "예술의전당 인춘아트홀",
    "address": "정보 없음",
    "district": ""
  },
  "꿈의숲_콘서트홀": {
    "name": "꿈의숲_콘서트홀",
    "address": "정보 없음",
    "district": ""
  },
  "일신홀": {
    "name": "일신홀",
    "address": "정보 없음",
    "district": ""
  },
  "삼익아트홀": {
    "name": "삼익아트홀",
    "address": "정보 없음",
    "district": ""
  },
  "모차르트홀": {
    "name": "모차르트홀",
    "address": "정보 없음",
    "district": ""
  },
  "하이스트리트 이탈리아": {
    "name": "하이스트리트 이탈리아",
    "address": "정보 없음",
    "district": ""
  },
  "라율아트홀": {
    "name": "라율아트홀",
    "address": "정보 없음",
    "district": ""
  },
  "정동1928 아트센터": {
    "name": "정동1928 아트센터",
    "address": "정보 없음",
    "district": ""
  },
  "콘서트홀 나누": {
    "name": "콘서트홀 나누",
    "address": "정보 없음",
    "district": ""
  },
  "여의도 KBS홀": {
    "name": "여의도 KBS홀",
    "address": "정보 없음",
    "district": ""
  },
  "충무아트센터예그린스페이스": {
    "name": "충무아트센터예그린스페이스",
    "address": "정보 없음",
    "district": ""
  },
  "JCC 아트센터 콘서트홀": {
    "name": "JCC 아트센터 콘서트홀",
    "address": "정보 없음",
    "district": ""
  },
  "명동대성당 내 파밀리아 채플": {
    "name": "명동대성당 내 파밀리아 채플",
    "address": "정보 없음",
    "district": ""
  },
  "서울교육대학교 음악관 콘서트홀": {
    "name": "서울교육대학교 음악관 콘서트홀",
    "address": "정보 없음",
    "district": ""
  },
  "롤링홀 Rollinghall": {
    "name": "롤링홀 Rollinghall",
    "address": "정보 없음",
    "district": ""
  },
  "서초문화예술회관 아트홀": {
    "name": "서초문화예술회관 아트홀",
    "address": "정보 없음",
    "district": "서초구",
    "lat": 37.4837,
    "lng": 127.0324
  },
  "신영체임버홀": {
    "name": "신영체임버홀",
    "address": "정보 없음",
    "district": ""
  },
  "영산양재홀": {
    "name": "영산양재홀",
    "address": "정보 없음",
    "district": ""
  },
  "전통공연창작마루 광무대": {
    "name": "전통공연창작마루 광무대",
    "address": "정보 없음",
    "district": ""
  },
  "마포아트센터 아트홀맥": {
    "name": "마포아트센터 아트홀맥",
    "address": "정보 없음",
    "district": "마포구",
    "lat": 37.5665,
    "lng": 126.9018
  },
  "광진어린이공연장": {
    "name": "광진어린이공연장",
    "address": "정보 없음",
    "district": ""
  },
  "국립국악원 풍류사랑방": {
    "name": "국립국악원 풍류사랑방",
    "address": "정보 없음",
    "district": ""
  },
  "김희수아트센터 SPACE1": {
    "name": "김희수아트센터 SPACE1",
    "address": "정보 없음",
    "district": ""
  },
  "국립국악원 우면당": {
    "name": "국립국악원 우면당",
    "address": "정보 없음",
    "district": ""
  },
  "서강대 메리홀 대극장": {
    "name": "서강대 메리홀 대극장",
    "address": "정보 없음",
    "district": ""
  },
  "강남씨어터극장": {
    "name": "강남씨어터극장",
    "address": "정보 없음",
    "district": ""
  },
  "삼청각 일화당": {
    "name": "삼청각 일화당",
    "address": "정보 없음",
    "district": ""
  },
  "세종문화회관 S씨어터": {
    "name": "세종문화회관 S씨어터",
    "address": "정보 없음",
    "district": ""
  },
  "서울남산국악당 크라운해태홀": {
    "name": "서울남산국악당 크라운해태홀",
    "address": "정보 없음",
    "district": ""
  },
  "논현동 문영빌딩": {
    "name": "논현동 문영빌딩",
    "address": "정보 없음",
    "district": ""
  },
  "진연홀": {
    "name": "진연홀",
    "address": "정보 없음",
    "district": ""
  },
  "한국문화의집 KOUS": {
    "name": "한국문화의집 KOUS",
    "address": "정보 없음",
    "district": ""
  },
  "서강대학교 메리홀 대극장": {
    "name": "서강대학교 메리홀 대극장",
    "address": "정보 없음",
    "district": ""
  },
  "이화여자대학교 ECC 삼성홀": {
    "name": "이화여자대학교 ECC 삼성홀",
    "address": "정보 없음",
    "district": ""
  },
  "DDP 뮤지엄 전시 2관": {
    "name": "DDP 뮤지엄 전시 2관",
    "address": "정보 없음",
    "district": ""
  },
  "예술의전당 한가람디자인미술관": {
    "name": "예술의전당 한가람디자인미술관",
    "address": "정보 없음",
    "district": ""
  },
  "대원뮤지엄 팝콘D스퀘어": {
    "name": "대원뮤지엄 팝콘D스퀘어",
    "address": "정보 없음",
    "district": ""
  },
  "충무아트센터 갤러리": {
    "name": "충무아트센터 갤러리",
    "address": "정보 없음",
    "district": ""
  },
  "롯데뮤지엄": {
    "name": "롯데뮤지엄",
    "address": "정보 없음",
    "district": ""
  },
  "풋볼 팬타지움 (2002 FIFA 월드컵 기념관)": {
    "name": "풋볼 팬타지움 (2002 FIFA 월드컵 기념관)",
    "address": "정보 없음",
    "district": ""
  },
  "K현대미술관": {
    "name": "K현대미술관",
    "address": "정보 없음",
    "district": ""
  },
  "그라운드시소 이스트": {
    "name": "그라운드시소 이스트",
    "address": "정보 없음",
    "district": ""
  },
  "세종문화회관 미술관": {
    "name": "세종문화회관 미술관",
    "address": "정보 없음",
    "district": ""
  },
  "동대문디자인플라자(DDP) 전시 1관": {
    "name": "동대문디자인플라자(DDP) 전시 1관",
    "address": "정보 없음",
    "district": ""
  },
  "예술의전당 한가람미술관 제7전시실": {
    "name": "예술의전당 한가람미술관 제7전시실",
    "address": "정보 없음",
    "district": ""
  },
  "빛의 시어터": {
    "name": "빛의 시어터",
    "address": "정보 없음",
    "district": ""
  },
  "뚝섬미술관": {
    "name": "뚝섬미술관",
    "address": "정보 없음",
    "district": ""
  },
  "세화미술관": {
    "name": "세화미술관",
    "address": "정보 없음",
    "district": ""
  },
  "그라운드시소 명동": {
    "name": "그라운드시소 명동",
    "address": "정보 없음",
    "district": ""
  },
  "그라운드시소 센트럴": {
    "name": "그라운드시소 센트럴",
    "address": "정보 없음",
    "district": ""
  },
  "그라운드시소 서촌": {
    "name": "그라운드시소 서촌",
    "address": "정보 없음",
    "district": ""
  },
  "모다갤러리": {
    "name": "모다갤러리",
    "address": "정보 없음",
    "district": ""
  },
  "노원문화예술회관 노원아트뮤지엄": {
    "name": "노원문화예술회관 노원아트뮤지엄",
    "address": "정보 없음",
    "district": "노원구",
    "lat": 37.6542,
    "lng": 127.0568
  },
  "디뮤지엄": {
    "name": "디뮤지엄",
    "address": "정보 없음",
    "district": ""
  },
  "전쟁기념관 특별전시실": {
    "name": "전쟁기념관 특별전시실",
    "address": "정보 없음",
    "district": ""
  },
  "롯데몰 김포공항점 1F 전시홀": {
    "name": "롯데몰 김포공항점 1F 전시홀",
    "address": "정보 없음",
    "district": ""
  },
  "후지시로 세이지 북촌스페이스": {
    "name": "후지시로 세이지 북촌스페이스",
    "address": "정보 없음",
    "district": ""
  },
  "그라운드시소 한남": {
    "name": "그라운드시소 한남",
    "address": "정보 없음",
    "district": ""
  },
  "북촌 어둠속의대화": {
    "name": "북촌 어둠속의대화",
    "address": "정보 없음",
    "district": ""
  },
  "아라리오뮤지엄 인 스페이스": {
    "name": "아라리오뮤지엄 인 스페이스",
    "address": "정보 없음",
    "district": ""
  },
  "MUSEUM 209": {
    "name": "MUSEUM 209",
    "address": "정보 없음",
    "district": ""
  },
  "예술의전당 서예박물관": {
    "name": "예술의전당 서예박물관",
    "address": "정보 없음",
    "district": ""
  },
  "더현대 서울 ALT. 1": {
    "name": "더현대 서울 ALT. 1",
    "address": "정보 없음",
    "district": ""
  },
  "더프리마아트센터": {
    "name": "더프리마아트센터",
    "address": "정보 없음",
    "district": ""
  },
  "창경궁": {
    "name": "창경궁",
    "address": "정보 없음",
    "district": ""
  },
  "덕수궁": {
    "name": "덕수궁",
    "address": "정보 없음",
    "district": ""
  },
  "여의도 벙커": {
    "name": "여의도 벙커",
    "address": "정보 없음",
    "district": ""
  },
  "마이아트뮤지엄 원그로브점": {
    "name": "마이아트뮤지엄 원그로브점",
    "address": "정보 없음",
    "district": ""
  },
  "코엑스 C홀": {
    "name": "코엑스 C홀",
    "address": "정보 없음",
    "district": ""
  },
  "마이아트뮤지엄": {
    "name": "마이아트뮤지엄",
    "address": "정보 없음",
    "district": ""
  },
  "워커힐 호텔 포레스트 파크": {
    "name": "워커힐 호텔 포레스트 파크",
    "address": "정보 없음",
    "district": ""
  },
  "갤러리 미셸": {
    "name": "갤러리 미셸",
    "address": "정보 없음",
    "district": ""
  },
  "꿈의숲_상상톡톡미술관": {
    "name": "꿈의숲_상상톡톡미술관",
    "address": "정보 없음",
    "district": ""
  },
  "코엑스 A홀": {
    "name": "코엑스 A홀",
    "address": "정보 없음",
    "district": ""
  },
  "경복궁": {
    "name": "경복궁",
    "address": "정보 없음",
    "district": ""
  },
  "경희궁": {
    "name": "경희궁",
    "address": "정보 없음",
    "district": ""
  },
  "고궁박물관": {
    "name": "고궁박물관",
    "address": "정보 없음",
    "district": ""
  },
  "국립중앙박물관": {
    "name": "국립중앙박물관",
    "address": "정보 없음",
    "district": ""
  },
  "연희정음": {
    "name": "연희정음",
    "address": "정보 없음",
    "district": ""
  },
  "낙산공원": {
    "name": "낙산공원",
    "address": "정보 없음",
    "district": ""
  },
  "한국민화학교": {
    "name": "한국민화학교",
    "address": "정보 없음",
    "district": ""
  },
  "블루스퀘어": {
    "name": "블루스퀘어",
    "address": "정보 없음",
    "district": ""
  },
  "서울역사박물관": {
    "name": "서울역사박물관",
    "address": "정보 없음",
    "district": ""
  },
  "선릉": {
    "name": "선릉",
    "address": "정보 없음",
    "district": ""
  },
  "창덕궁 돈화문": {
    "name": "창덕궁 돈화문",
    "address": "정보 없음",
    "district": ""
  },
  "JCC크리에이티브센터 스튜디오": {
    "name": "JCC크리에이티브센터 스튜디오",
    "address": "정보 없음",
    "district": ""
  },
  "서촌 일대": {
    "name": "서촌 일대",
    "address": "정보 없음",
    "district": ""
  },
  "덕수궁 돌담길": {
    "name": "덕수궁 돌담길",
    "address": "정보 없음",
    "district": ""
  },
  "코엑스 3층 C홀": {
    "name": "코엑스 3층 C홀",
    "address": "정보 없음",
    "district": ""
  },
  "토탈미술관": {
    "name": "토탈미술관",
    "address": "정보 없음",
    "district": ""
  },
  "현대카드 Storage": {
    "name": "현대카드 Storage",
    "address": "정보 없음",
    "district": ""
  },
  "빚다 도예공방 강동점": {
    "name": "빚다 도예공방 강동점",
    "address": "정보 없음",
    "district": ""
  },
  "［경복궁］ 해와달 한복": {
    "name": "［경복궁］ 해와달 한복",
    "address": "정보 없음",
    "district": ""
  },
  "궁궐사랑": {
    "name": "궁궐사랑",
    "address": "정보 없음",
    "district": ""
  },
  "쥬라리움 금천": {
    "name": "쥬라리움 금천",
    "address": "정보 없음",
    "district": ""
  },
  "N 서울타워": {
    "name": "N 서울타워",
    "address": "정보 없음",
    "district": ""
  },
  "N서울타워": {
    "name": "N서울타워",
    "address": "정보 없음",
    "district": ""
  },
  "반지만들기카페 건대지점": {
    "name": "반지만들기카페 건대지점",
    "address": "정보 없음",
    "district": ""
  },
  "클럽롤러힐": {
    "name": "클럽롤러힐",
    "address": "정보 없음",
    "district": ""
  },
  "홍대반지": {
    "name": "홍대반지",
    "address": "정보 없음",
    "district": ""
  },
  "목동 종합사격장": {
    "name": "목동 종합사격장",
    "address": "정보 없음",
    "district": ""
  },
  "서래마을 휴리재": {
    "name": "서래마을 휴리재",
    "address": "정보 없음",
    "district": ""
  },
  "리얼샷사격양궁장": {
    "name": "리얼샷사격양궁장",
    "address": "정보 없음",
    "district": ""
  },
  "방탈출카페 탈출브라더스": {
    "name": "방탈출카페 탈출브라더스",
    "address": "정보 없음",
    "district": ""
  },
  "한강요트클럽 세일링파라다이스": {
    "name": "한강요트클럽 세일링파라다이스",
    "address": "정보 없음",
    "district": ""
  },
  "볼베어파크 은평점": {
    "name": "볼베어파크 은평점",
    "address": "정보 없음",
    "district": ""
  },
  "방탈출미로": {
    "name": "방탈출미로",
    "address": "정보 없음",
    "district": ""
  },
  "［종로］리얼샷": {
    "name": "［종로］리얼샷",
    "address": "정보 없음",
    "district": ""
  },
  "리얼샷 사격양궁장 혜화점": {
    "name": "리얼샷 사격양궁장 혜화점",
    "address": "정보 없음",
    "district": ""
  },
  "비밀의 숲 홍대점": {
    "name": "비밀의 숲 홍대점",
    "address": "정보 없음",
    "district": ""
  },
  "씨라이프 코엑스아쿠아리움": {
    "name": "씨라이프 코엑스아쿠아리움",
    "address": "정보 없음",
    "district": ""
  },
  "코엑스 아쿠아리움": {
    "name": "코엑스 아쿠아리움",
    "address": "정보 없음",
    "district": ""
  },
  "삼성 코엑스아쿠아리움": {
    "name": "삼성 코엑스아쿠아리움",
    "address": "정보 없음",
    "district": ""
  },
  "양재스포타임": {
    "name": "양재스포타임",
    "address": "정보 없음",
    "district": ""
  },
  "루프캣미 명동점": {
    "name": "루프캣미 명동점",
    "address": "정보 없음",
    "district": ""
  },
  "루프캣미 홍대점": {
    "name": "루프캣미 홍대점",
    "address": "정보 없음",
    "district": ""
  },
  "프린세스요트코리아": {
    "name": "프린세스요트코리아",
    "address": "정보 없음",
    "district": ""
  },
  "제니스 스포츠클럽 아이스링크": {
    "name": "제니스 스포츠클럽 아이스링크",
    "address": "정보 없음",
    "district": ""
  },
  "주렁주렁 영등포 타임스퀘어점": {
    "name": "주렁주렁 영등포 타임스퀘어점",
    "address": "정보 없음",
    "district": ""
  },
  "서울중구투어패스": {
    "name": "서울중구투어패스",
    "address": "정보 없음",
    "district": "중구",
    "lat": 37.5637,
    "lng": 126.9975
  },
  "［성북］ 빚다 도예공방 도자기만들기 / 물레체험 /": {
    "name": "［성북］ 빚다 도예공방 도자기만들기 / 물레체험 /",
    "address": "정보 없음",
    "district": ""
  },
  "이랜드크루즈": {
    "name": "이랜드크루즈",
    "address": "정보 없음",
    "district": ""
  },
  "이랜드 크루즈": {
    "name": "이랜드 크루즈",
    "address": "정보 없음",
    "district": ""
  },
  "［연남］ K탑건 사격양궁장": {
    "name": "［연남］ K탑건 사격양궁장",
    "address": "정보 없음",
    "district": ""
  },
  "그아저씨 도예공방 원데이 클래스": {
    "name": "그아저씨 도예공방 원데이 클래스",
    "address": "정보 없음",
    "district": ""
  },
  "크라운 해태 키즈뮤지엄": {
    "name": "크라운 해태 키즈뮤지엄",
    "address": "정보 없음",
    "district": ""
  },
  "주식회사 리얼샷 익선점": {
    "name": "주식회사 리얼샷 익선점",
    "address": "정보 없음",
    "district": ""
  },
  "플레이타임 중앙": {
    "name": "플레이타임 중앙",
    "address": "정보 없음",
    "district": ""
  },
  "블루마린 스쿠버 다이브": {
    "name": "블루마린 스쿠버 다이브",
    "address": "정보 없음",
    "district": ""
  },
  "경복궁 한복남": {
    "name": "경복궁 한복남",
    "address": "정보 없음",
    "district": ""
  },
  "종로 한복남": {
    "name": "종로 한복남",
    "address": "정보 없음",
    "district": ""
  },
  "한복남 북촌한옥마을점": {
    "name": "한복남 북촌한옥마을점",
    "address": "정보 없음",
    "district": ""
  },
  "키자니아 서울": {
    "name": "키자니아 서울",
    "address": "정보 없음",
    "district": ""
  },
  "케이탑건 홍대점": {
    "name": "케이탑건 홍대점",
    "address": "정보 없음",
    "district": ""
  },
  "월드컵공원 노을캠핑장": {
    "name": "월드컵공원 노을캠핑장",
    "address": "정보 없음",
    "district": ""
  },
  "월드컵공원": {
    "name": "월드컵공원",
    "address": "정보 없음",
    "district": ""
  },
  "가산 아쿠아밸리": {
    "name": "가산 아쿠아밸리",
    "address": "정보 없음",
    "district": ""
  },
  "롯데월드 아이스링크": {
    "name": "롯데월드 아이스링크",
    "address": "정보 없음",
    "district": ""
  },
  "롯데월드 아쿠아리움": {
    "name": "롯데월드 아쿠아리움",
    "address": "정보 없음",
    "district": ""
  },
  "롯데월드 어드벤처 잠실": {
    "name": "롯데월드 어드벤처 잠실",
    "address": "정보 없음",
    "district": ""
  },
  "롯데월드 어드벤처": {
    "name": "롯데월드 어드벤처",
    "address": "정보 없음",
    "district": ""
  },
  "서울스카이": {
    "name": "서울스카이",
    "address": "정보 없음",
    "district": ""
  },
  "천왕산가족캠핑장": {
    "name": "천왕산가족캠핑장",
    "address": "정보 없음",
    "district": ""
  },
  "파크하비오 워터킹덤": {
    "name": "파크하비오 워터킹덤",
    "address": "정보 없음",
    "district": ""
  },
  "퓨처그라운드 롯데몰 김포공항점": {
    "name": "퓨처그라운드 롯데몰 김포공항점",
    "address": "정보 없음",
    "district": ""
  },
  "고양어울림누리 어울림극장": {
    "name": "고양어울림누리 어울림극장",
    "address": "정보 없음",
    "district": ""
  },
  "부천시민회관 대공연장": {
    "name": "부천시민회관 대공연장",
    "address": "정보 없음",
    "district": "부천시",
    "lat": 37.5034,
    "lng": 126.766
  },
  "수원문화원 빛누리아트홀": {
    "name": "수원문화원 빛누리아트홀",
    "address": "정보 없음",
    "district": "수원시",
    "lat": 37.2636,
    "lng": 127.0286
  },
  "안산문화예술의전당 해돋이극장": {
    "name": "안산문화예술의전당 해돋이극장",
    "address": "정보 없음",
    "district": "안산시",
    "lat": 37.368,
    "lng": 126.836
  },
  "안성맞춤아트홀 대공연장": {
    "name": "안성맞춤아트홀 대공연장",
    "address": "정보 없음",
    "district": ""
  },
  "오산문화예술회관 대공연장": {
    "name": "오산문화예술회관 대공연장",
    "address": "정보 없음",
    "district": ""
  },
  "용인시문예회관 처인홀": {
    "name": "용인시문예회관 처인홀",
    "address": "정보 없음",
    "district": "용인시",
    "lat": 37.241,
    "lng": 127.1775
  },
  "용인시 평생학습관 큰어울마당": {
    "name": "용인시 평생학습관 큰어울마당",
    "address": "정보 없음",
    "district": "용인시",
    "lat": 37.241,
    "lng": 127.1775
  },
  "남동소래아트홀 대공연장": {
    "name": "남동소래아트홀 대공연장",
    "address": "정보 없음",
    "district": ""
  },
  "인천문화예술회관 소공연장": {
    "name": "인천문화예술회관 소공연장",
    "address": "정보 없음",
    "district": "인천",
    "lat": 37.4563,
    "lng": 126.7052
  },
  "한국항공대학교 투데이아트홀": {
    "name": "한국항공대학교 투데이아트홀",
    "address": "정보 없음",
    "district": ""
  },
  "평택 북부문화예술회관 대공연장": {
    "name": "평택 북부문화예술회관 대공연장",
    "address": "정보 없음",
    "district": ""
  },
  "평택서부문화예술회관 대공연장": {
    "name": "평택서부문화예술회관 대공연장",
    "address": "정보 없음",
    "district": ""
  },
  "장안구민회관 한누리아트홀": {
    "name": "장안구민회관 한누리아트홀",
    "address": "정보 없음",
    "district": ""
  },
  "고양어울림누리 별모래극장": {
    "name": "고양어울림누리 별모래극장",
    "address": "정보 없음",
    "district": ""
  },
  "용인문화예술원 마루홀": {
    "name": "용인문화예술원 마루홀",
    "address": "정보 없음",
    "district": "용인시",
    "lat": 37.241,
    "lng": 127.1775
  },
  "성남아트센터 앙상블시어터": {
    "name": "성남아트센터 앙상블시어터",
    "address": "정보 없음",
    "district": "성남시",
    "lat": 37.4386,
    "lng": 127.1378
  },
  "청라블루노바홀": {
    "name": "청라블루노바홀",
    "address": "정보 없음",
    "district": ""
  },
  "인천서구문화회관 대공연장": {
    "name": "인천서구문화회관 대공연장",
    "address": "정보 없음",
    "district": "인천",
    "lat": 37.4563,
    "lng": 126.7052
  },
  "인천 중구문화회관": {
    "name": "인천 중구문화회관",
    "address": "정보 없음",
    "district": "중구",
    "lat": 37.5637,
    "lng": 126.9975
  },
  "구리아트홀 유채꽃소극장": {
    "name": "구리아트홀 유채꽃소극장",
    "address": "정보 없음",
    "district": ""
  },
  "인천서구문화회관 소공연장": {
    "name": "인천서구문화회관 소공연장",
    "address": "정보 없음",
    "district": "인천",
    "lat": 37.4563,
    "lng": 126.7052
  },
  "부평아트센터 달누리 극장": {
    "name": "부평아트센터 달누리 극장",
    "address": "정보 없음",
    "district": "부평구",
    "lat": 37.5074,
    "lng": 126.7217
  },
  "롯데백화점 평촌점 (2F 문화홀)": {
    "name": "롯데백화점 평촌점 (2F 문화홀)",
    "address": "정보 없음",
    "district": ""
  },
  "과천시민회관 대극장": {
    "name": "과천시민회관 대극장",
    "address": "정보 없음",
    "district": ""
  },
  "한국잡월드 나래울극장": {
    "name": "한국잡월드 나래울극장",
    "address": "정보 없음",
    "district": ""
  },
  "인천문화예술회관 대공연장": {
    "name": "인천문화예술회관 대공연장",
    "address": "정보 없음",
    "district": "인천",
    "lat": 37.4563,
    "lng": 126.7052
  },
  "평택남부문화예술회관 대공연장": {
    "name": "평택남부문화예술회관 대공연장",
    "address": "정보 없음",
    "district": ""
  },
  "남동소래아트홀 소래극장(대공연장)": {
    "name": "남동소래아트홀 소래극장(대공연장)",
    "address": "정보 없음",
    "district": ""
  },
  "광명문화예술교육지원센터 광명극장": {
    "name": "광명문화예술교육지원센터 광명극장",
    "address": "정보 없음",
    "district": ""
  },
  "용인어린이상상의숲 공연놀이터": {
    "name": "용인어린이상상의숲 공연놀이터",
    "address": "정보 없음",
    "district": ""
  },
  "성남아트리움 대극장": {
    "name": "성남아트리움 대극장",
    "address": "정보 없음",
    "district": "성남시",
    "lat": 37.4386,
    "lng": 127.1378
  },
  "여주시여성회관": {
    "name": "여주시여성회관",
    "address": "정보 없음",
    "district": ""
  },
  "구리아트홀 코스모스 대극장": {
    "name": "구리아트홀 코스모스 대극장",
    "address": "정보 없음",
    "district": ""
  },
  "안양아트센터 관악홀": {
    "name": "안양아트센터 관악홀",
    "address": "정보 없음",
    "district": ""
  },
  "과천시민회관 소극장": {
    "name": "과천시민회관 소극장",
    "address": "정보 없음",
    "district": ""
  },
  "의정부예술의전당 대극장": {
    "name": "의정부예술의전당 대극장",
    "address": "정보 없음",
    "district": ""
  },
  "부평아트센터 해누리 극장": {
    "name": "부평아트센터 해누리 극장",
    "address": "정보 없음",
    "district": "부평구",
    "lat": 37.5074,
    "lng": 126.7217
  },
  "이천아트홀 소공연장": {
    "name": "이천아트홀 소공연장",
    "address": "정보 없음",
    "district": ""
  },
  "한국만화박물관 1층 만화영화상영관": {
    "name": "한국만화박물관 1층 만화영화상영관",
    "address": "정보 없음",
    "district": ""
  },
  "경기아트센터 소극장": {
    "name": "경기아트센터 소극장",
    "address": "정보 없음",
    "district": ""
  },
  "포천반월아트홀 대극장": {
    "name": "포천반월아트홀 대극장",
    "address": "정보 없음",
    "district": ""
  },
  "군포문화예술회관 철쭉홀": {
    "name": "군포문화예술회관 철쭉홀",
    "address": "정보 없음",
    "district": ""
  },
  "파주 운정행복센터": {
    "name": "파주 운정행복센터",
    "address": "정보 없음",
    "district": ""
  },
  "용인포은아트홀": {
    "name": "용인포은아트홀",
    "address": "정보 없음",
    "district": ""
  },
  "이천아트홀 대공연장": {
    "name": "이천아트홀 대공연장",
    "address": "정보 없음",
    "district": ""
  },
  "고양아람누리 아람극장": {
    "name": "고양아람누리 아람극장",
    "address": "정보 없음",
    "district": ""
  },
  "평택아트센터": {
    "name": "평택아트센터",
    "address": "정보 없음",
    "district": ""
  },
  "경기아트센터 대극장": {
    "name": "경기아트센터 대극장",
    "address": "정보 없음",
    "district": ""
  },
  "광주시문화예술의전당 남한산성홀 (구.남한산성아트홀": {
    "name": "광주시문화예술의전당 남한산성홀 (구.남한산성아트홀",
    "address": "정보 없음",
    "district": ""
  },
  "디아나아트홀": {
    "name": "디아나아트홀",
    "address": "정보 없음",
    "district": ""
  },
  "화성아트홀": {
    "name": "화성아트홀",
    "address": "정보 없음",
    "district": ""
  },
  "성남아트센터 오페라하우스": {
    "name": "성남아트센터 오페라하우스",
    "address": "정보 없음",
    "district": "성남시",
    "lat": 37.4386,
    "lng": 127.1378
  },
  "국립과천과학관 어울림홀": {
    "name": "국립과천과학관 어울림홀",
    "address": "정보 없음",
    "district": ""
  },
  "KBS수원아트홀": {
    "name": "KBS수원아트홀",
    "address": "정보 없음",
    "district": "수원시",
    "lat": 37.2636,
    "lng": 127.0286
  },
  "비상교육 대강당": {
    "name": "비상교육 대강당",
    "address": "정보 없음",
    "district": ""
  },
  "신한대학교 벧엘관": {
    "name": "신한대학교 벧엘관",
    "address": "정보 없음",
    "district": ""
  },
  "복사골문화센터 아트홀": {
    "name": "복사골문화센터 아트홀",
    "address": "정보 없음",
    "district": ""
  },
  "안산문화예술의전당 달맞이극장": {
    "name": "안산문화예술의전당 달맞이극장",
    "address": "정보 없음",
    "district": "안산시",
    "lat": 37.368,
    "lng": 126.836
  },
  "광명시민회관 대공연장": {
    "name": "광명시민회관 대공연장",
    "address": "정보 없음",
    "district": ""
  },
  "남양주 어린이비전센터": {
    "name": "남양주 어린이비전센터",
    "address": "정보 없음",
    "district": ""
  },
  "성남소극장": {
    "name": "성남소극장",
    "address": "정보 없음",
    "district": ""
  },
  "광주시문화예술의전당 맹사성홀": {
    "name": "광주시문화예술의전당 맹사성홀",
    "address": "정보 없음",
    "district": ""
  },
  "모두누림센터 누림아트홀": {
    "name": "모두누림센터 누림아트홀",
    "address": "정보 없음",
    "district": ""
  },
  "인천어린이과학관 공연장": {
    "name": "인천어린이과학관 공연장",
    "address": "정보 없음",
    "district": "인천",
    "lat": 37.4563,
    "lng": 126.7052
  },
  "파라다이스시티 클럽크로마": {
    "name": "파라다이스시티 클럽크로마",
    "address": "정보 없음",
    "district": ""
  },
  "계양문화회관 대공연장": {
    "name": "계양문화회관 대공연장",
    "address": "정보 없음",
    "district": ""
  },
  "군포문화예술회관 수리홀": {
    "name": "군포문화예술회관 수리홀",
    "address": "정보 없음",
    "district": ""
  },
  "김포아트홀": {
    "name": "김포아트홀",
    "address": "정보 없음",
    "district": ""
  },
  "수원SK아트리움 대공연장": {
    "name": "수원SK아트리움 대공연장",
    "address": "정보 없음",
    "district": ""
  },
  "안양체육관": {
    "name": "안양체육관",
    "address": "정보 없음",
    "district": ""
  },
  "송도컨벤시아": {
    "name": "송도컨벤시아",
    "address": "정보 없음",
    "district": ""
  },
  "파주 솔가람아트홀": {
    "name": "파주 솔가람아트홀",
    "address": "정보 없음",
    "district": ""
  },
  "콩치노 콩크리트 콘서트홀": {
    "name": "콩치노 콩크리트 콘서트홀",
    "address": "정보 없음",
    "district": ""
  },
  "고양아람누리 아람음악당": {
    "name": "고양아람누리 아람음악당",
    "address": "정보 없음",
    "district": ""
  },
  "인천송도컨벤시아": {
    "name": "인천송도컨벤시아",
    "address": "정보 없음",
    "district": "인천",
    "lat": 37.4563,
    "lng": 126.7052
  },
  "부평문화사랑방": {
    "name": "부평문화사랑방",
    "address": "정보 없음",
    "district": "부평구",
    "lat": 37.5074,
    "lng": 126.7217
  },
  "하남문화예술회관 대극장(검단홀)": {
    "name": "하남문화예술회관 대극장(검단홀)",
    "address": "정보 없음",
    "district": ""
  },
  "안산대학교 강석봉기념관": {
    "name": "안산대학교 강석봉기념관",
    "address": "정보 없음",
    "district": ""
  },
  "성남아트센터 콘서트홀": {
    "name": "성남아트센터 콘서트홀",
    "address": "정보 없음",
    "district": "성남시",
    "lat": 37.4386,
    "lng": 127.1378
  },
  "킨텍스 제2전시장 10B홀": {
    "name": "킨텍스 제2전시장 10B홀",
    "address": "정보 없음",
    "district": ""
  },
  "인천남동체육관": {
    "name": "인천남동체육관",
    "address": "정보 없음",
    "district": "인천",
    "lat": 37.4563,
    "lng": 126.7052
  },
  "킨텍스 제1전시장 2홀": {
    "name": "킨텍스 제1전시장 2홀",
    "address": "정보 없음",
    "district": ""
  },
  "일산 킨텍스 제2전시장 10A홀": {
    "name": "일산 킨텍스 제2전시장 10A홀",
    "address": "정보 없음",
    "district": ""
  },
  "수원컨벤션센터 1~2홀": {
    "name": "수원컨벤션센터 1~2홀",
    "address": "정보 없음",
    "district": ""
  },
  "송도컨벤시아 4홀": {
    "name": "송도컨벤시아 4홀",
    "address": "정보 없음",
    "district": ""
  },
  "남동체육관": {
    "name": "남동체육관",
    "address": "정보 없음",
    "district": ""
  },
  "일산 킨텍스(KINTEX)": {
    "name": "일산 킨텍스(KINTEX)",
    "address": "정보 없음",
    "district": ""
  },
  "인스파이어 르스페이스": {
    "name": "인스파이어 르스페이스",
    "address": "정보 없음",
    "district": ""
  },
  "서울랜드": {
    "name": "서울랜드",
    "address": "정보 없음",
    "district": ""
  },
  "인스파이어 컬쳐홀": {
    "name": "인스파이어 컬쳐홀",
    "address": "정보 없음",
    "district": ""
  },
  "세종국악당": {
    "name": "세종국악당",
    "address": "정보 없음",
    "district": ""
  },
  "통진두레문화센터 두레홀": {
    "name": "통진두레문화센터 두레홀",
    "address": "정보 없음",
    "district": ""
  },
  "킨텍스 제2전시장 10홀": {
    "name": "킨텍스 제2전시장 10홀",
    "address": "정보 없음",
    "district": ""
  },
  "송도 카페와안": {
    "name": "송도 카페와안",
    "address": "정보 없음",
    "district": ""
  },
  "아늑호텔 인천점 2층": {
    "name": "아늑호텔 인천점 2층",
    "address": "정보 없음",
    "district": "인천",
    "lat": 37.4563,
    "lng": 126.7052
  },
  "수원 컨벤션 센터": {
    "name": "수원 컨벤션 센터",
    "address": "정보 없음",
    "district": ""
  },
  "인스파이어 오로라바 일대": {
    "name": "인스파이어 오로라바 일대",
    "address": "정보 없음",
    "district": ""
  },
  "파라다이스시티 크로마": {
    "name": "파라다이스시티 크로마",
    "address": "정보 없음",
    "district": ""
  },
  "킨텍스": {
    "name": "킨텍스",
    "address": "정보 없음",
    "district": ""
  },
  "바른아트센터": {
    "name": "바른아트센터",
    "address": "정보 없음",
    "district": ""
  },
  "평택북부문화예술회관 소공연장": {
    "name": "평택북부문화예술회관 소공연장",
    "address": "정보 없음",
    "district": ""
  },
  "이천아트홀 전관": {
    "name": "이천아트홀 전관",
    "address": "정보 없음",
    "district": ""
  },
  "인천 학산소극장": {
    "name": "인천 학산소극장",
    "address": "정보 없음",
    "district": "인천",
    "lat": 37.4563,
    "lng": 126.7052
  },
  "다락소극장": {
    "name": "다락소극장",
    "address": "정보 없음",
    "district": ""
  },
  "mne Hall": {
    "name": "mne Hall",
    "address": "정보 없음",
    "district": ""
  },
  "군포시 평생학습원 상상극장": {
    "name": "군포시 평생학습원 상상극장",
    "address": "정보 없음",
    "district": ""
  },
  "작은극장 돌체": {
    "name": "작은극장 돌체",
    "address": "정보 없음",
    "district": ""
  },
  "의정부예술의전당 소극장": {
    "name": "의정부예술의전당 소극장",
    "address": "정보 없음",
    "district": ""
  },
  "매직앤조이": {
    "name": "매직앤조이",
    "address": "정보 없음",
    "district": ""
  },
  "미리내 마술극단 송도점": {
    "name": "미리내 마술극단 송도점",
    "address": "정보 없음",
    "district": ""
  },
  "반석아트홀": {
    "name": "반석아트홀",
    "address": "정보 없음",
    "district": ""
  },
  "부천소극장": {
    "name": "부천소극장",
    "address": "정보 없음",
    "district": ""
  },
  "13블럭 소극장": {
    "name": "13블럭 소극장",
    "address": "경기도 고양시 일산동구 강촌로26번길 7-21",
    "district": "고양시",
    "lat": 37.646986,
    "lng": 126.780041
  },
  "안산 소극장 보노마루": {
    "name": "안산 소극장 보노마루",
    "address": "정보 없음",
    "district": ""
  },
  "부천아트센터 소공연장": {
    "name": "부천아트센터 소공연장",
    "address": "정보 없음",
    "district": "부천시",
    "lat": 37.5034,
    "lng": 126.766
  },
  "피아올라홀": {
    "name": "피아올라홀",
    "address": "정보 없음",
    "district": ""
  },
  "하남문화예술회관소극장(아랑홀)": {
    "name": "하남문화예술회관소극장(아랑홀)",
    "address": "정보 없음",
    "district": ""
  },
  "광주시문화예술의전당 남한산성홀": {
    "name": "광주시문화예술의전당 남한산성홀",
    "address": "정보 없음",
    "district": ""
  },
  "평택 남부문화예술회관 대공연장": {
    "name": "평택 남부문화예술회관 대공연장",
    "address": "정보 없음",
    "district": ""
  },
  "아트센터인천 콘서트홀": {
    "name": "아트센터인천 콘서트홀",
    "address": "정보 없음",
    "district": "인천",
    "lat": 37.4563,
    "lng": 126.7052
  },
  "남양성모성지 대성당": {
    "name": "남양성모성지 대성당",
    "address": "정보 없음",
    "district": ""
  },
  "아트센터인천 다목적홀": {
    "name": "아트센터인천 다목적홀",
    "address": "정보 없음",
    "district": "인천",
    "lat": 37.4563,
    "lng": 126.7052
  },
  "부천아트센터 콘서트홀": {
    "name": "부천아트센터 콘서트홀",
    "address": "정보 없음",
    "district": "부천시",
    "lat": 37.5034,
    "lng": 126.766
  },
  "엘림아트센터 엘림홀": {
    "name": "엘림아트센터 엘림홀",
    "address": "정보 없음",
    "district": ""
  },
  "트라이보울": {
    "name": "트라이보울",
    "address": "정보 없음",
    "district": ""
  },
  "포천반월아트홀 소극장": {
    "name": "포천반월아트홀 소극장",
    "address": "정보 없음",
    "district": ""
  },
  "오산문화예술회관 소공연장": {
    "name": "오산문화예술회관 소공연장",
    "address": "정보 없음",
    "district": ""
  },
  "빌라드파넬": {
    "name": "빌라드파넬",
    "address": "정보 없음",
    "district": ""
  },
  "한중문화관": {
    "name": "한중문화관",
    "address": "정보 없음",
    "district": "중구",
    "lat": 37.5637,
    "lng": 126.9975
  },
  "경기국악원 국악당": {
    "name": "경기국악원 국악당",
    "address": "정보 없음",
    "district": ""
  },
  "정조테마공연장": {
    "name": "정조테마공연장",
    "address": "정보 없음",
    "district": ""
  },
  "양주문화예술회관 소공연장": {
    "name": "양주문화예술회관 소공연장",
    "address": "정보 없음",
    "district": ""
  },
  "해당공연 공연장 - 수원": {
    "name": "해당공연 공연장 - 수원",
    "address": "정보 없음",
    "district": ""
  },
  "평택 서부문화예술회관 대공연장": {
    "name": "평택 서부문화예술회관 대공연장",
    "address": "정보 없음",
    "district": ""
  },
  "동탄복합문화센터 반석아트홀": {
    "name": "동탄복합문화센터 반석아트홀",
    "address": "정보 없음",
    "district": ""
  },
  "해당공연 공연장－경기": {
    "name": "해당공연 공연장－경기",
    "address": "정보 없음",
    "district": ""
  },
  "현대백화점 판교점 10층 토파즈홀": {
    "name": "현대백화점 판교점 10층 토파즈홀",
    "address": "정보 없음",
    "district": ""
  },
  "고양시립 아람미술관": {
    "name": "고양시립 아람미술관",
    "address": "정보 없음",
    "district": "고양시",
    "lat": 37.6584,
    "lng": 126.832
  },
  "한국만화박물관": {
    "name": "한국만화박물관",
    "address": "정보 없음",
    "district": ""
  },
  "리빙파워센터 4F": {
    "name": "리빙파워센터 4F",
    "address": "정보 없음",
    "district": ""
  },
  "동탄 어둠속의대화": {
    "name": "동탄 어둠속의대화",
    "address": "정보 없음",
    "district": ""
  },
  "키즈 아트 갤러리 by MAM": {
    "name": "키즈 아트 갤러리 by MAM",
    "address": "정보 없음",
    "district": ""
  },
  "매직플로우 원더파크": {
    "name": "매직플로우 원더파크",
    "address": "정보 없음",
    "district": ""
  },
  "니지모리 스튜디오": {
    "name": "니지모리 스튜디오",
    "address": "정보 없음",
    "district": ""
  },
  "헤이리 팝트릭아트 93뮤지엄": {
    "name": "헤이리 팝트릭아트 93뮤지엄",
    "address": "정보 없음",
    "district": ""
  },
  "매직플로우 원더빌리지": {
    "name": "매직플로우 원더빌리지",
    "address": "정보 없음",
    "district": ""
  },
  "성남큐브미술관": {
    "name": "성남큐브미술관",
    "address": "정보 없음",
    "district": ""
  },
  "이천 경기도자미술관": {
    "name": "이천 경기도자미술관",
    "address": "정보 없음",
    "district": ""
  },
  "클럽 크로마": {
    "name": "클럽 크로마",
    "address": "정보 없음",
    "district": ""
  },
  "클럽크로마": {
    "name": "클럽크로마",
    "address": "정보 없음",
    "district": ""
  },
  "아트팩토리참기름": {
    "name": "아트팩토리참기름",
    "address": "정보 없음",
    "district": ""
  },
  "잇츠콜라박물관": {
    "name": "잇츠콜라박물관",
    "address": "정보 없음",
    "district": ""
  },
  "한국항공대학교 항공우주박물관": {
    "name": "한국항공대학교 항공우주박물관",
    "address": "정보 없음",
    "district": ""
  },
  "용인어린이상상의숲 예술놀이터": {
    "name": "용인어린이상상의숲 예술놀이터",
    "address": "정보 없음",
    "district": ""
  },
  "용인시실내체육관": {
    "name": "용인시실내체육관",
    "address": "정보 없음",
    "district": "용인시",
    "lat": 37.241,
    "lng": 127.1775
  },
  "구하우스미술관": {
    "name": "구하우스미술관",
    "address": "정보 없음",
    "district": ""
  },
  "트리플스트리트 D동 B1": {
    "name": "트리플스트리트 D동 B1",
    "address": "정보 없음",
    "district": ""
  },
  "쎈토이박물관": {
    "name": "쎈토이박물관",
    "address": "정보 없음",
    "district": ""
  },
  "여주곤충박물관": {
    "name": "여주곤충박물관",
    "address": "정보 없음",
    "district": ""
  },
  "용인어린이상상의숲 미술놀이터": {
    "name": "용인어린이상상의숲 미술놀이터",
    "address": "정보 없음",
    "district": ""
  },
  "용인어린이상상의숲 요리조리스튜디오": {
    "name": "용인어린이상상의숲 요리조리스튜디오",
    "address": "정보 없음",
    "district": ""
  },
  "고양 아람누리 제4전시실": {
    "name": "고양 아람누리 제4전시실",
    "address": "정보 없음",
    "district": ""
  },
  "용인문화예술원 전시실": {
    "name": "용인문화예술원 전시실",
    "address": "정보 없음",
    "district": "용인시",
    "lat": 37.241,
    "lng": 127.1775
  },
  "킨텍스 10A홀": {
    "name": "킨텍스 10A홀",
    "address": "정보 없음",
    "district": ""
  },
  "현대백화점 중동점 9층 문화홀": {
    "name": "현대백화점 중동점 9층 문화홀",
    "address": "정보 없음",
    "district": ""
  },
  "헤이리 파주공룡박물관": {
    "name": "헤이리 파주공룡박물관",
    "address": "정보 없음",
    "district": ""
  },
  "네이처스케이프 플러스": {
    "name": "네이처스케이프 플러스",
    "address": "정보 없음",
    "district": ""
  },
  "안성맞춤랜드 내 천문과학관": {
    "name": "안성맞춤랜드 내 천문과학관",
    "address": "정보 없음",
    "district": ""
  },
  "가평 쁘띠프랑스": {
    "name": "가평 쁘띠프랑스",
    "address": "정보 없음",
    "district": ""
  },
  "쁘띠프랑스": {
    "name": "쁘띠프랑스",
    "address": "정보 없음",
    "district": ""
  },
  "가평탑랜드 번지점프": {
    "name": "가평탑랜드 번지점프",
    "address": "정보 없음",
    "district": ""
  },
  "과천 서울랜드": {
    "name": "과천 서울랜드",
    "address": "정보 없음",
    "district": ""
  },
  "동두천 놀자숲": {
    "name": "동두천 놀자숲",
    "address": "정보 없음",
    "district": ""
  },
  "볼베어파크 부천점": {
    "name": "볼베어파크 부천점",
    "address": "정보 없음",
    "district": ""
  },
  "놀숲 수원역점": {
    "name": "놀숲 수원역점",
    "address": "정보 없음",
    "district": ""
  },
  "플라잉수원": {
    "name": "플라잉수원",
    "address": "정보 없음",
    "district": ""
  },
  "오산 오마이쥬 키즈파크": {
    "name": "오산 오마이쥬 키즈파크",
    "address": "정보 없음",
    "district": ""
  },
  "세라젬웰파크 위례점": {
    "name": "세라젬웰파크 위례점",
    "address": "정보 없음",
    "district": ""
  },
  "하피랜드": {
    "name": "하피랜드",
    "address": "정보 없음",
    "district": ""
  },
  "하피랜드 찜질스파": {
    "name": "하피랜드 찜질스파",
    "address": "정보 없음",
    "district": ""
  },
  "그린필드골프연습장": {
    "name": "그린필드골프연습장",
    "address": "정보 없음",
    "district": ""
  },
  "다일락스포렉스": {
    "name": "다일락스포렉스",
    "address": "정보 없음",
    "district": ""
  },
  "스윙쉐프동백": {
    "name": "스윙쉐프동백",
    "address": "정보 없음",
    "district": ""
  },
  "(주)송운개발": {
    "name": "(주)송운개발",
    "address": "경기도 용인시 처인구 지삼로 470",
    "district": "용인시",
    "lat": 37.2343,
    "lng": 127.1615
  },
  "서평택골프클럽": {
    "name": "서평택골프클럽",
    "address": "정보 없음",
    "district": ""
  },
  "시흥 공룡월드": {
    "name": "시흥 공룡월드",
    "address": "정보 없음",
    "district": ""
  },
  "양평 양떼목장": {
    "name": "양평 양떼목장",
    "address": "정보 없음",
    "district": ""
  },
  "에이원민턴 씨앤탑 지축점": {
    "name": "에이원민턴 씨앤탑 지축점",
    "address": "정보 없음",
    "district": ""
  },
  "용인 공룡월드": {
    "name": "용인 공룡월드",
    "address": "정보 없음",
    "district": ""
  },
  "용인 액트몬": {
    "name": "용인 액트몬",
    "address": "정보 없음",
    "district": ""
  },
  "한택식물원": {
    "name": "한택식물원",
    "address": "정보 없음",
    "district": ""
  },
  "펀웨이브": {
    "name": "펀웨이브",
    "address": "정보 없음",
    "district": ""
  },
  "곤지암리조트 렌탈샵 보스": {
    "name": "곤지암리조트 렌탈샵 보스",
    "address": "정보 없음",
    "district": ""
  },
  "곤지암리조트렌탈샵 닥터스노우": {
    "name": "곤지암리조트렌탈샵 닥터스노우",
    "address": "정보 없음",
    "district": ""
  },
  "［곤지암］ 청춘스키": {
    "name": "［곤지암］ 청춘스키",
    "address": "정보 없음",
    "district": ""
  },
  "주렁주렁 동탄라크몽점": {
    "name": "주렁주렁 동탄라크몽점",
    "address": "정보 없음",
    "district": ""
  },
  "주렁주렁 하남점": {
    "name": "주렁주렁 하남점",
    "address": "정보 없음",
    "district": ""
  },
  "SDR골프아카데미": {
    "name": "SDR골프아카데미",
    "address": "정보 없음",
    "district": ""
  },
  "쥬쥬랜드": {
    "name": "쥬쥬랜드",
    "address": "정보 없음",
    "district": ""
  },
  "보드박스": {
    "name": "보드박스",
    "address": "정보 없음",
    "district": ""
  },
  "아쿠아플라넷 광교": {
    "name": "아쿠아플라넷 광교",
    "address": "정보 없음",
    "district": ""
  },
  "김포 몬스터리움": {
    "name": "김포 몬스터리움",
    "address": "정보 없음",
    "district": ""
  },
  "김포구래점 아이존팝": {
    "name": "김포구래점 아이존팝",
    "address": "정보 없음",
    "district": ""
  },
  "영일딸기농장": {
    "name": "영일딸기농장",
    "address": "정보 없음",
    "district": ""
  },
  "오키드 키즈카페": {
    "name": "오키드 키즈카페",
    "address": "정보 없음",
    "district": ""
  },
  "한지이야기": {
    "name": "한지이야기",
    "address": "정보 없음",
    "district": ""
  },
  "남양주 플레이킹덤 키즈카페": {
    "name": "남양주 플레이킹덤 키즈카페",
    "address": "정보 없음",
    "district": ""
  },
  "［다산］ 도심속 멀티힐링 스팟 스파디움24": {
    "name": "［다산］ 도심속 멀티힐링 스팟 스파디움24",
    "address": "정보 없음",
    "district": ""
  },
  "디아쿠아": {
    "name": "디아쿠아",
    "address": "정보 없음",
    "district": ""
  },
  "아르티스테마파크": {
    "name": "아르티스테마파크",
    "address": "정보 없음",
    "district": ""
  },
  "동탄 공룡월드": {
    "name": "동탄 공룡월드",
    "address": "정보 없음",
    "district": ""
  },
  "쥬리라움 동탄점": {
    "name": "쥬리라움 동탄점",
    "address": "정보 없음",
    "district": ""
  },
  "모닝스키 렌탈샵": {
    "name": "모닝스키 렌탈샵",
    "address": "정보 없음",
    "district": ""
  },
  "지산캠프 렌탈샵": {
    "name": "지산캠프 렌탈샵",
    "address": "정보 없음",
    "district": ""
  },
  "스카이 롤러스케이트장": {
    "name": "스카이 롤러스케이트장",
    "address": "정보 없음",
    "district": ""
  },
  "인피니티 게임월드": {
    "name": "인피니티 게임월드",
    "address": "정보 없음",
    "district": ""
  },
  "극동조이키즈파크": {
    "name": "극동조이키즈파크",
    "address": "정보 없음",
    "district": ""
  },
  "자이언트제트 시아테마파크점": {
    "name": "자이언트제트 시아테마파크점",
    "address": "정보 없음",
    "district": ""
  },
  "양주눈꽃축제": {
    "name": "양주눈꽃축제",
    "address": "정보 없음",
    "district": ""
  },
  "양주 가나아트파크": {
    "name": "양주 가나아트파크",
    "address": "정보 없음",
    "district": ""
  },
  "두리랜드": {
    "name": "두리랜드",
    "address": "정보 없음",
    "district": ""
  },
  "양주곤충박물관": {
    "name": "양주곤충박물관",
    "address": "정보 없음",
    "district": ""
  },
  "양주 어드벤처 시티": {
    "name": "양주 어드벤처 시티",
    "address": "정보 없음",
    "district": ""
  },
  "여주 루덴시아": {
    "name": "여주 루덴시아",
    "address": "정보 없음",
    "district": ""
  },
  "썬밸리워터파크": {
    "name": "썬밸리워터파크",
    "address": "정보 없음",
    "district": ""
  },
  "여주 주주팜": {
    "name": "여주 주주팜",
    "address": "정보 없음",
    "district": ""
  },
  "캐리비안베이": {
    "name": "캐리비안베이",
    "address": "정보 없음",
    "district": ""
  },
  "모빌리티뮤지엄": {
    "name": "모빌리티뮤지엄",
    "address": "정보 없음",
    "district": ""
  },
  "에버랜드": {
    "name": "에버랜드",
    "address": "정보 없음",
    "district": ""
  },
  "테일45": {
    "name": "테일45",
    "address": "정보 없음",
    "district": ""
  },
  "플라이스테이션": {
    "name": "플라이스테이션",
    "address": "정보 없음",
    "district": ""
  },
  "［인천］부평 엔터파크 게임장": {
    "name": "［인천］부평 엔터파크 게임장",
    "address": "정보 없음",
    "district": "인천",
    "lat": 37.4563,
    "lng": 126.7052
  },
  "방탈출고": {
    "name": "방탈출고",
    "address": "정보 없음",
    "district": ""
  },
  "인천 공룡월드": {
    "name": "인천 공룡월드",
    "address": "정보 없음",
    "district": "인천",
    "lat": 37.4563,
    "lng": 126.7052
  },
  "쥬벅스 앤 쥬니멀": {
    "name": "쥬벅스 앤 쥬니멀",
    "address": "정보 없음",
    "district": ""
  },
  "［인천］ 의사직업체험 드림닥터": {
    "name": "［인천］ 의사직업체험 드림닥터",
    "address": "정보 없음",
    "district": "인천",
    "lat": 37.4563,
    "lng": 126.7052
  },
  "［인천］의사직업체험 드림닥터": {
    "name": "［인천］의사직업체험 드림닥터",
    "address": "정보 없음",
    "district": "인천",
    "lat": 37.4563,
    "lng": 126.7052
  },
  "삼방가딸기랜드": {
    "name": "삼방가딸기랜드",
    "address": "정보 없음",
    "district": ""
  },
  "아쿠아플라넷 일산": {
    "name": "아쿠아플라넷 일산",
    "address": "정보 없음",
    "district": ""
  },
  "원마운트 스노우파크": {
    "name": "원마운트 스노우파크",
    "address": "정보 없음",
    "district": ""
  },
  "원마운트 워터파크": {
    "name": "원마운트 워터파크",
    "address": "정보 없음",
    "district": ""
  },
  "원마운트 프렌디노": {
    "name": "원마운트 프렌디노",
    "address": "정보 없음",
    "district": ""
  },
  "자연에스파": {
    "name": "자연에스파",
    "address": "정보 없음",
    "district": ""
  },
  "히어로플레이파크 일산점": {
    "name": "히어로플레이파크 일산점",
    "address": "정보 없음",
    "district": ""
  },
  "쥬라리움 청라": {
    "name": "쥬라리움 청라",
    "address": "정보 없음",
    "district": ""
  },
  "플레이월드 미사점": {
    "name": "플레이월드 미사점",
    "address": "정보 없음",
    "district": ""
  },
  "한복남 한국민속촌점": {
    "name": "한복남 한국민속촌점",
    "address": "정보 없음",
    "district": ""
  },
  "월롱딸기체험": {
    "name": "월롱딸기체험",
    "address": "정보 없음",
    "district": ""
  },
  "쥬라리움 파주점": {
    "name": "쥬라리움 파주점",
    "address": "정보 없음",
    "district": ""
  },
  "앤드엣": {
    "name": "앤드엣",
    "address": "정보 없음",
    "district": ""
  },
  "사파리테마파크": {
    "name": "사파리테마파크",
    "address": "정보 없음",
    "district": ""
  },
  "트릭아트뮤지엄": {
    "name": "트릭아트뮤지엄",
    "address": "정보 없음",
    "district": ""
  },
  "파주 홍삼스파 참숯가마사우나": {
    "name": "파주 홍삼스파 참숯가마사우나",
    "address": "정보 없음",
    "district": ""
  },
  "서원인레인지 (서원밸리CC 골프연습장)": {
    "name": "서원인레인지 (서원밸리CC 골프연습장)",
    "address": "정보 없음",
    "district": ""
  },
  "판교레이크골프클럽": {
    "name": "판교레이크골프클럽",
    "address": "정보 없음",
    "district": ""
  },
  "평택 황토참숯가마": {
    "name": "평택 황토참숯가마",
    "address": "정보 없음",
    "district": ""
  },
  "쥬라리움 하남": {
    "name": "쥬라리움 하남",
    "address": "정보 없음",
    "district": ""
  },
  "이천 테르메덴": {
    "name": "이천 테르메덴",
    "address": "정보 없음",
    "district": ""
  },
  "아센사우나 ＆ 찜질방": {
    "name": "아센사우나 ＆ 찜질방",
    "address": "정보 없음",
    "district": ""
  },
  "화성 치즈학교": {
    "name": "화성 치즈학교",
    "address": "정보 없음",
    "district": ""
  },
  "화성투어패스": {
    "name": "화성투어패스",
    "address": "정보 없음",
    "district": ""
  },
  "공릉관광지": {
    "name": "공릉관광지",
    "address": "정보 없음",
    "district": ""
  },
  "구리 토평 가족캠핑장": {
    "name": "구리 토평 가족캠핑장",
    "address": "정보 없음",
    "district": ""
  },
  "갯골캠핑장": {
    "name": "갯골캠핑장",
    "address": "정보 없음",
    "district": ""
  },
  "안성맞춤캠핑장": {
    "name": "안성맞춤캠핑장",
    "address": "정보 없음",
    "district": ""
  },
  "곤지암 리조트": {
    "name": "곤지암 리조트",
    "address": "정보 없음",
    "district": ""
  },
  "킨텍스 캠핑장": {
    "name": "킨텍스 캠핑장",
    "address": "정보 없음",
    "district": ""
  },
  "코코넛 렌탈샵": {
    "name": "코코넛 렌탈샵",
    "address": "정보 없음",
    "district": ""
  },
  "남이섬 가평 선착장(남이섬 입구)": {
    "name": "남이섬 가평 선착장(남이섬 입구)",
    "address": "정보 없음",
    "district": ""
  },
  "디스커버스 의왕": {
    "name": "디스커버스 의왕",
    "address": "정보 없음",
    "district": ""
  },
  "소요 별＆숲 테마파크 상상공작소": {
    "name": "소요 별＆숲 테마파크 상상공작소",
    "address": "정보 없음",
    "district": ""
  },
  "소요 별＆숲 테마파크": {
    "name": "소요 별＆숲 테마파크",
    "address": "정보 없음",
    "district": ""
  },
  "송도국제캠핑장": {
    "name": "송도국제캠핑장",
    "address": "정보 없음",
    "district": ""
  },
  "아쿠아필드 고양": {
    "name": "아쿠아필드 고양",
    "address": "정보 없음",
    "district": ""
  },
  "아쿠아필드 안성": {
    "name": "아쿠아필드 안성",
    "address": "정보 없음",
    "district": ""
  },
  "아쿠아필드 안성점": {
    "name": "아쿠아필드 안성점",
    "address": "정보 없음",
    "district": ""
  },
  "아쿠아필드 하남": {
    "name": "아쿠아필드 하남",
    "address": "정보 없음",
    "district": ""
  },
  "안성맞춤 남사당공연장": {
    "name": "안성맞춤 남사당공연장",
    "address": "정보 없음",
    "district": ""
  },
  "안성팜랜드": {
    "name": "안성팜랜드",
    "address": "정보 없음",
    "district": ""
  },
  "연천 세계캠핑체험존": {
    "name": "연천 세계캠핑체험존",
    "address": "정보 없음",
    "district": ""
  },
  "연천재인폭포오토캠핑장": {
    "name": "연천재인폭포오토캠핑장",
    "address": "정보 없음",
    "district": ""
  },
  "영종도 인스파이어 스플래시 베이": {
    "name": "영종도 인스파이어 스플래시 베이",
    "address": "정보 없음",
    "district": ""
  },
  "인천대공원캠핑장": {
    "name": "인천대공원캠핑장",
    "address": "정보 없음",
    "district": "인천",
    "lat": 37.4563,
    "lng": 126.7052
  },
  "잭슨나인스 일산점": {
    "name": "잭슨나인스 일산점",
    "address": "정보 없음",
    "district": ""
  },
  "김포 쥬라기파크": {
    "name": "김포 쥬라기파크",
    "address": "정보 없음",
    "district": ""
  },
  "수원 라이프스포츠 워터파크": {
    "name": "수원 라이프스포츠 워터파크",
    "address": "정보 없음",
    "district": ""
  },
  "파라다이스시티 씨메르": {
    "name": "파라다이스시티 씨메르",
    "address": "정보 없음",
    "district": ""
  },
  "파라다이스시티 원더박스": {
    "name": "파라다이스시티 원더박스",
    "address": "정보 없음",
    "district": ""
  },
  "파주 놀이구름": {
    "name": "파주 놀이구름",
    "address": "정보 없음",
    "district": ""
  },
  "평택 내리캠핑장": {
    "name": "평택 내리캠핑장",
    "address": "정보 없음",
    "district": ""
  },
  "진위천유원지": {
    "name": "진위천유원지",
    "address": "정보 없음",
    "district": ""
  },
  "포천자연마을 서울캠핑장": {
    "name": "포천자연마을 서울캠핑장",
    "address": "정보 없음",
    "district": ""
  },
  "플레이월드 다산점": {
    "name": "플레이월드 다산점",
    "address": "정보 없음",
    "district": ""
  },
  "플레이월드 부천점": {
    "name": "플레이월드 부천점",
    "address": "정보 없음",
    "district": ""
  },
  "플레이월드 파주점": {
    "name": "플레이월드 파주점",
    "address": "정보 없음",
    "district": ""
  },
  "플레이티카 롯데아울렛구리점": {
    "name": "플레이티카 롯데아울렛구리점",
    "address": "정보 없음",
    "district": ""
  },
  "한국민속촌": {
    "name": "한국민속촌",
    "address": "정보 없음",
    "district": ""
  },
  "한복남 한국민속촌": {
    "name": "한복남 한국민속촌",
    "address": "정보 없음",
    "district": ""
  },
  "한탄강캠핑장": {
    "name": "한탄강캠핑장",
    "address": "정보 없음",
    "district": ""
  }
}